[{"reference": "CmRSAAAAYXfj5syl3dMkWYK6Tc2kRMskmRlzLCESvDBaxppVevGvo4GMKSWi1DOgw5oiK16i3zN0AInzApsN_xw7bj0YenbJdvtPO6dOchiDUT7EJeAWjkDL6lNfv2vYm6z4FPVNEhDKevHH1ZM3jAaTCchyol_QGhQrU5MYeq89uDHrlc0W2kDVJDR8vg", "rating": 5, "geometry": {"viewport": {"northeast": {"lat": 21.0280644802915, "lng": 105.8504361802915}, "southwest": {"lat": 21.02536651970849, "lng": 105.8477382197085}}, "location": {"lat": 21.0267155, "lng": 105.8490872}}, "name": "ATM Techcombank - Nguyen Kim Machine Center", "icon": "https://maps.gstatic.com/mapfiles/place_api/icons/atm-71.png", "vicinity": "10, Tr\u00e0ng Thi, Ph\u01b0\u1eddng H\u00e0ng Tr\u1ed1ng, Qu\u1eadn Ho\u00e0n Ki\u1ebfm", "id": "345996c053e4465914719d9b5879052a038e5d4c", "types": ["atm", "finance", "point_of_interest", "establishment"], "scope": "GOOGLE", "place_id": "ChIJfylpXJSrNTERJtDW6lQCbv4"}, {"reference": "CmRSAAAA1swwrDuYAYczb-uBx7WUZktUst5Y9Lmd9k99RZo6fZmxP6USaL5BO_WLPO8HHc1WESdBac2VEEANw2BiTEMwVZJ9YbAVy4F0VCn-H3AvL2HNYRKMj_SczvW0WVsC1z81EhD8sP8Ac_90rqaO2t28uxCWGhRJAlN5o2Z3x2vU2O4DHgy2m8yGiQ", "vicinity": "14 H\u00e0ng \u0110\u1eadu, Nguy\u1ec5n Trung Tr\u1ef1c", "geometry": {"viewport": {"northeast": {"lat": 21.0418059302915, "lng": 105.8507694802915}, "southwest": {"lat": 21.0391079697085, "lng": 105.8480715197085}}, "location": {"lat": 21.0403921, "lng": 105.8494413}}, "name": "Bidv - Atm", "icon": "https://maps.gstatic.com/mapfiles/place_api/icons/atm-71.png", "opening_hours": {"weekday_text": [], "open_now": true}, "id": "75112febe23c4a58c4ff5dc656ef3c05e69e43e8", "types": ["atm", "finance", "point_of_interest", "establishment"], "scope": "GOOGLE", "place_id": "ChIJXygOs7mrNTERxyZ2bJVJb_A"}, {"reference": "CmRSAAAA_U2ubWvrfV4Sdj6YGtwLCcNCJTqJG2HR6HZKHHMYf-0u7HFjxaa73foS__t35XicXvnSgSG3bL20Lg6jwhRzX9lJXU9XUflsC3ppac5cHhpQYJcxeoCr8TbNZeUDCfwnEhB9DCQaB94QpUUhcicwZGMjGhRW6Y2piJ2aW1GkkLsBh5l6N9Q9zQ", "vicinity": "4 L\u00ea Th\u00e1nh T\u00f4ng, Phan Chu Trinh", "geometry": {"viewport": {"northeast": {"lat": 21.0236910802915, "lng": 105.8590873302915}, "southwest": {"lat": 21.02099311970849, "lng": 105.8563893697085}}, "location": {"lat": 21.0223614, "lng": 105.8577972}}, "name": "Bidv - Atm", "icon": "https://maps.gstatic.com/mapfiles/place_api/icons/atm-71.png", "opening_hours": {"weekday_text": [], "open_now": true}, "id": "1be69643670bb2a47899e7338d8153a2a3b1cfda", "types": ["atm", "finance", "point_of_interest", "establishment"], "scope": "GOOGLE", "place_id": "ChIJ2SudI-yrNTERic8xbbMyK50"}, {"reference": "CmRSAAAAPaAQpkjCykjGUaHtnAjNLZ45VZHLmT9YuAFpCxrk-kRuLHCMMXdChUAN5Ux8OlQpa_e5BDUKiM4sue8Z7behy0tAjx2CU9_luayI-xecoQMO05WUQ3SQli5vwdeB4jH6EhADWQVXIcDvqmPpMz0LOhWfGhStQVO-2Cs5cxoSzfzz6E41aks-3g", "rating": 3.3, "geometry": {"viewport": {"northeast": {"lat": 21.0197650802915, "lng": 105.8488697802915}, "southwest": {"lat": 21.0170671197085, "lng": 105.8461718197085}}, "location": {"lat": 21.0184161, "lng": 105.8475208}}, "name": "ATM lBank For Investment And Development Of Vietnam (BIDV)- 53 Quang Trung Street", "icon": "https://maps.gstatic.com/mapfiles/place_api/icons/atm-71.png", "opening_hours": {"weekday_text": [], "open_now": true}, "id": "45ddf591f33654de98323a2cf39b29c96468ff9b", "types": ["atm", "finance", "point_of_interest", "establishment"], "vicinity": "53, Quang Trung Street, Hoan Kiem District, Ha Noi City", "scope": "GOOGLE", "place_id": "ChIJ2WFyu5OrNTERCfqLd-rf5qc"}, {"reference": "CmRSAAAAxyc7p0XrT_Slo0Vv3KVMhndcKBUwiRcCwhn_5Cf_6Xcwzq6GruC_c6xlKuhzylf61AR-rVH5T08pEVbEjNJ_AZt5IWTuJ3bhnrkJ3lJnB_TOx4K2DYlJAecThTbTez-REhCz2T0F_EeQOkXk3x8t0o5uGhTcsP0jeuz-Om4Ro3zjEx2mzjXwyg", "name": "ATM Vietcombank - Vietcombank Head", "vicinity": "31-33, Ph\u1ed1 Ng\u00f4 Quy\u1ec1n, Ph\u01b0\u1eddng H\u00e0ng B\u00e0i, Qu\u1eadn Ho\u00e0n Ki\u1ebfm", "opening_hours": {"weekday_text": [], "open_now": false}, "id": "bb6c99edce00c7f466d330c1c7dcb4062cd67c53", "scope": "GOOGLE", "geometry": {"viewport": {"northeast": {"lat": 21.0256421802915, "lng": 105.8561050802915}, "southwest": {"lat": 21.0229442197085, "lng": 105.8534071197085}}, "location": {"lat": 21.0242932, "lng": 105.8547561}}, "rating": 4, "icon": "https://maps.gstatic.com/mapfiles/place_api/icons/atm-71.png", "types": ["atm", "finance", "point_of_interest", "establishment"], "photos": [{"height": 3264, "photo_reference": "CmRaAAAAktEEZQraqwRlkWdi9WIm6biR1uJCgFK30RnQefmWOgfE1t3Tej-x99lP4fMu-SJL00ZWPsLj2sloZS6stjz5ExbAZyHhunYERwBNB0BcjukPPo1W4VdmpEo51U7muGqLEhAzyvTRg0S7Oj6apbduxAgyGhS-MNLpZU_wD43ekMPjVfxmtspicw", "html_attributions": ["<a href=\"https://maps.google.com/maps/contrib/114105808613703982054/photos\">C\u01b0\u1eddng Qu\u1ea3n</a>"], "width": 2448}], "place_id": "ChIJs0DQguyrNTER9moSdvvEo80"}, {"reference": "CmRSAAAAKO1NrdCPaBtVlOvkEeorECnGWQ7-P9fLU_tJSiLKcda-l76QyT3GthnHwszlZkNam8PbjQn2lmWPRAW2CLq5WfraIrvvyejY0UqXLXnobYPAv6Q1BGB043xqrUeJ3watEhChGaJpSayw58yBPhYTXWsFGhQgycf3w0xBFVc77Ap_Ai36lykx6A", "name": "ATM HDBank - Chi Nh\u00e1nh Ho\u00e0n Ki\u1ebfm", "vicinity": "32, Ph\u1ed1 Tr\u1ea7n H\u01b0ng \u0110\u1ea1o, Ph\u01b0\u1eddng Phan Chu Trinh, Qu\u1eadn Ho\u00e0n Ki\u1ebfm", "opening_hours": {"weekday_text": [], "open_now": false}, "id": "800e4ceeaf3bf75f5a9105d98edb1de54651970c", "scope": "GOOGLE", "geometry": {"viewport": {"northeast": {"lat": 21.0217725802915, "lng": 105.8560847802915}, "southwest": {"lat": 21.0190746197085, "lng": 105.8533868197085}}, "location": {"lat": 21.0204236, "lng": 105.8547358}}, "rating": 4.7, "icon": "https://maps.gstatic.com/mapfiles/place_api/icons/atm-71.png", "types": ["atm", "finance", "point_of_interest", "establishment"], "photos": [{"height": 1888, "photo_reference": "CmRaAAAA7bwtTuG-jhnLdINGNeHhGQ7ebSDsnE1ORftLeBHtRtKhkVn7UrBv_D6iGWQGtTYIGVerBFoko3sgUHlJrwbhpA19re7xoGLdCPf-ybWu8UJnTHG3W8TSYke5VdoMYXl-EhC_VBmbEeZ2jTd-WB33KZrQGhQ_QarKbQ89nta_vuVGqjU19Q9EhQ", "html_attributions": ["<a href=\"https://maps.google.com/maps/contrib/103588260975996281368/photos\">Hung Viet</a>"], "width": 1056}], "place_id": "ChIJw2v5De2rNTERwbtCLOoPiIg"}, {"reference": "CmRRAAAAuAIf7TVDVctCXeTu6tcHWbNBLYeS2GMOgZW6lr93Xw-NY4BVwjwdPYls5b6e8trX5tcgwOZWGJa_y0t-uarQAT5YegbqBvOR5tQPCQgGWA4inHz9gv2OylINK3JAKXloEhAV0gY4nCFC17jntDe7ZoL9GhQPs6KalOhrVY-vZ1Q_i9nm0K3Tbg", "vicinity": "83 L\u00fd Th\u01b0\u1eddng Ki\u1ec7t, Tr\u1ea7n H\u01b0ng \u0110\u1ea1o", "geometry": {"viewport": {"northeast": {"lat": 21.0264132802915, "lng": 105.8458368302915}, "southwest": {"lat": 21.0237153197085, "lng": 105.8431388697085}}, "location": {"lat": 21.0250389, "lng": 105.8444792}}, "name": "Hsbc - Atm", "icon": "https://maps.gstatic.com/mapfiles/place_api/icons/atm-71.png", "opening_hours": {"weekday_text": [], "open_now": true}, "id": "c5919fa69898c69504590941e50255aba6c6bf11", "types": ["atm", "finance", "point_of_interest", "establishment"], "scope": "GOOGLE", "place_id": "ChIJv-ETMpGrNTER8GIXFzujvjw"}, {"reference": "CmRSAAAAC7Rm0exS566b7QDNrTNjEY55Hwb-lfv_ayXS5HFfyNrt1tTDUXBp4_9uaX9mvAMQZbVtrpr3LEjUWG96x8nkKKZAWg3PqEblxnIV1oIfAMcmJExbkRMf_q1mypleCW6AEhDhH3tgodc1CqgdpM7OMjkfGhQFhpZs8mp6VzrcOdsJMECDZUjeFQ", "rating": 3.8, "geometry": {"viewport": {"northeast": {"lat": 21.0247936802915, "lng": 105.8542021302915}, "southwest": {"lat": 21.0220957197085, "lng": 105.8515041697085}}, "location": {"lat": 21.0234255, "lng": 105.8529482}}, "name": "ATM Sacombank", "icon": "https://maps.gstatic.com/mapfiles/place_api/icons/atm-71.png", "opening_hours": {"weekday_text": [], "open_now": true}, "id": "95e98dd72539f7dd523e817d1d3d39d76456db15", "types": ["atm", "finance", "point_of_interest", "establishment"], "vicinity": "S\u1ed1 27 H\u00e0ng B\u00e0i", "scope": "GOOGLE", "place_id": "ChIJAxKWtuyrNTERN8hFOIapVJk"}, {"reference": "CmRRAAAAb62EO6NcSlHT9y_7m2iLtSWySK_-4_6TwoEu77JGuss3-qcsl--rJ9-YPvKuDz1NQQ-XW8V5hcSM_k4u_lBVEywiH7nYX8HfmHl9iex-JZV9A21dKymW5Ftv5II8p5UiEhCNJNHJdmsGBrvhLzlWTywbGhRfPgh9h17h6jKJrBpao4ESpW7npA", "rating": 4, "geometry": {"viewport": {"northeast": {"lat": 21.0173698802915, "lng": 105.8504485302915}, "southwest": {"lat": 21.0146719197085, "lng": 105.8477505697085}}, "location": {"lat": 21.01602, "lng": 105.8489632}}, "name": "ATM ACB", "icon": "https://maps.gstatic.com/mapfiles/place_api/icons/atm-71.png", "vicinity": "184 B\u00e0 Tri\u1ec7u, B\u00f9i Th\u1ecb Xu\u00e2n", "id": "6a82d1e4c37a0478794a715fb91a4a37da8ef338", "types": ["atm", "finance", "point_of_interest", "establishment"], "scope": "GOOGLE", "place_id": "ChIJve64VYyrNTERwLL9ETayehU"}, {"reference": "CmRRAAAANp7tZNuaRfBkiln8nOZ-Lq8A2mnMBo4R7rgtaTrEXgKSwck9F2BQrMVQHLB0QUPY0LuJZxXnj9Vzmd6-9l90GjIMD9UnE8pQ_Nv8TDgTrGagjLwQa0KYvJ_3gXxI9a-JEhB9l7dinI7e10DlGfHt8qJNGhQ62u-AMoMsOvkUqLoOmyFnZPdgNQ", "rating": 4, "geometry": {"viewport": {"northeast": {"lat": 21.0233696302915, "lng": 105.8518237302915}, "southwest": {"lat": 21.02067166970849, "lng": 105.8491257697085}}, "location": {"lat": 21.0220061, "lng": 105.8505249}}, "name": "Sacombank - Atm", "icon": "https://maps.gstatic.com/mapfiles/place_api/icons/atm-71.png", "vicinity": "45 B\u00e0 Tri\u1ec7u, H\u00e0ng B\u00e0i", "id": "0f92dcdea420affc8ec4116d1e355d743fa25da3", "types": ["atm", "finance", "point_of_interest", "establishment"], "scope": "GOOGLE", "place_id": "ChIJ2eabHZOrNTERuBWk4PMpmyc"}, {"reference": "CmRRAAAAsoyBDlnFLSNDzW3ZVrBueZ8K7sVfl6GDWZOW56GUFje69h5Ql2Q2gGUq-ahg0BwKVZVlkZ0TFviOMiXQZeuH7-s-WXDk5bzkYOTAhD8xUbPsYFA3AW8fFmGdcVxGxyXQEhC9E1nz5Jkx7YQxEsEd1yquGhT2J-w_-onCDRSUfgU7peN0HUVGmQ", "rating": 4, "geometry": {"viewport": {"northeast": {"lat": 21.0183349802915, "lng": 105.8506046802915}, "southwest": {"lat": 21.0156370197085, "lng": 105.8479067197085}}, "location": {"lat": 21.0169861, "lng": 105.8492535}}, "name": "ATM \u0110\u00f4ng \u00c1", "icon": "https://maps.gstatic.com/mapfiles/place_api/icons/atm-71.png", "opening_hours": {"weekday_text": [], "open_now": true}, "id": "f2c529dd61de6f29054b06906c81969c02230f32", "types": ["atm", "finance", "point_of_interest", "establishment"], "vicinity": "B\u00e0 Tri\u1ec7u, Nguy\u1ec5n Du", "scope": "GOOGLE", "place_id": "ChIJhxaoqI2rNTERrs8V8ZzbFDA"}, {"reference": "CmRSAAAAD9MQ6jhKOcfo6u0_xSIgWaHVRe25sEl4IcIsyPbfGih6hTomekwJ2bDKnY83OhwUHp3SujsgB3IZYAECrG_-ibQWIfMpaTXUzIu6b421_lAmk_DjmIIdF1DgyA_XrDT9EhDHG18PQYIBhm9jbe0FqYvuGhQ58IoaOgCRcFN8Ua982ia_oMDDZA", "geometry": {"viewport": {"northeast": {"lat": 21.0313948802915, "lng": 105.8564463302915}, "southwest": {"lat": 21.0286969197085, "lng": 105.8537483697085}}, "location": {"lat": 21.0300576, "lng": 105.8551392}}, "name": "Mb - Atm", "icon": "https://maps.gstatic.com/mapfiles/place_api/icons/atm-71.png", "vicinity": "24 Ph\u1ed1 L\u00fd Th\u00e1i T\u1ed5, L\u00fd Th\u00e1i T\u1ed5", "id": "f38bf6d9472e55d87deadd7fbdbcb992eb4534bd", "types": ["atm", "finance", "point_of_interest", "establishment"], "scope": "GOOGLE", "place_id": "ChIJRzIqguqrNTERIf6TvX4B1OM"}, {"reference": "CmRRAAAABJbodoEyWkTTJysr0pGxXSxA6ES3E_kWWADyrXNq2m_Mt1HRTg-6EcvxWuNI-jozGFESLV3NVN3QaS58rbpZ81DxkX16ULaP5qU6Hz8esWugduPZOV4VNcm0w6jDJlN2EhCHkF83Hxpb1DWMdFRO1YJuGhQN0HUawD5wd4j30BK7AaRZvSCBNg", "vicinity": "10 \u0110\u01b0\u1eddng Th\u00e0nh, C\u1eeda \u0110\u00f4ng", "geometry": {"viewport": {"northeast": {"lat": 21.0342872302915, "lng": 105.8476356802915}, "southwest": {"lat": 21.03158926970849, "lng": 105.8449377197085}}, "location": {"lat": 21.0329561, "lng": 105.8463309}}, "name": "ATM Bidv", "icon": "https://maps.gstatic.com/mapfiles/place_api/icons/atm-71.png", "opening_hours": {"weekday_text": [], "open_now": true}, "id": "90289273483f3fbdbbc59a3f1beb6448a9352a1a", "types": ["atm", "finance", "point_of_interest", "establishment"], "scope": "GOOGLE", "place_id": "ChIJh0Dg272rNTERttNGTI6TpWw"}, {"reference": "CmRSAAAA1Db_6PvNUV-MDkVJOeT406g_6-LWB8OH0PsnoH3zdzLlSgoh2Sm1x6xDLhy2AlhC960Oyu4aSNEJwSqVQQUENjSixIdcROBUXzyhvsUSYsXKMcKFZQnAPNOhDl1sVNDrEhBxp-x0gHmxnF9w6s15NxDPGhQ2xsb_WYYaQYOWR8IZPgozbaqawQ", "name": "Sacombank ATM", "vicinity": "222 X\u00e3 \u0110\u00e0n, Ph\u01b0\u01a1ng Li\u00ean", "opening_hours": {"weekday_text": [], "open_now": true}, "id": "6d43930a47450cfe687c6b3d83430cfe68753783", "scope": "GOOGLE", "geometry": {"viewport": {"northeast": {"lat": 21.0131911302915, "lng": 105.8379589302915}, "southwest": {"lat": 21.0104931697085, "lng": 105.8352609697085}}, "location": {"lat": 21.0118758, "lng": 105.8366471}}, "rating": 5, "icon": "https://maps.gstatic.com/mapfiles/place_api/icons/atm-71.png", "types": ["atm", "finance", "point_of_interest", "establishment"], "photos": [{"height": 3968, "photo_reference": "CmRaAAAAC0OnjQ1_QRygoAjLoDbSdSlCYGtZ6Th6ZGt_2qOG1H9TT-hOYx1oQ3bjnCSrrI8-jIPYvtkaXLI_R5WQjYjNH09q_RyiCnFGcsR-cwWuGRmqTSZdwWItPyP3tkRVKBgXEhBwoWGmprXw1g0qyk2s7bNfGhQ57W1h7plAd1Up8GAAzvHf_FSy3g", "html_attributions": ["<a href=\"https://maps.google.com/maps/contrib/115011375563639861150/photos\">Vi Dinh</a>"], "width": 2976}], "place_id": "ChIJmUVz4YarNTERc1UvF_dKCOU"}, {"reference": "CmRRAAAAm2B9UhNx9qppwaU49jt43lbrSybTt22i4bnsIJHpD8EoJJKSI305nHMnYkjXxSp2XGAAnnkIitFQyhntd8XQX52QZAR8chRe16VRDafHUPw-xzUA1WG4B8n4I6sQaCx4EhDklmvbOfTvPE2IOthgh9EcGhRqsLRwsnebz-bvSfsGv3ZA5SzIAw", "vicinity": "260 Hu\u1ebf, Ph\u1ed1 Hu\u1ebf", "geometry": {"viewport": {"northeast": {"lat": 21.0137677302915, "lng": 105.8530860802915}, "southwest": {"lat": 21.0110697697085, "lng": 105.8503881197085}}, "location": {"lat": 21.0124167, "lng": 105.8517694}}, "name": "Sacombank-Atm", "icon": "https://maps.gstatic.com/mapfiles/place_api/icons/atm-71.png", "opening_hours": {"weekday_text": [], "open_now": false}, "id": "3c96734aba406862ba8f3e6a87fd21c491348b89", "types": ["atm", "finance", "point_of_interest", "establishment"], "photos": [{"height": 441, "photo_reference": "CmRaAAAAdjY8tOpXlhOfB7vCPkVM3oTABBt0z1tDbAcQGT36JAFoW7Vodc7-d4LpozB6OXwzHOGtvl-IZro0kMoeQSAkgHxiUbGUvfsElxgnPZmTbmqnip78qb4MEzkal7XrHdygEhBaROqOXB_jozB1zD5FlWybGhQTNftcGiwaefU0IMKO7PRC1nVIDg", "html_attributions": ["<a href=\"https://maps.google.com/maps/contrib/115874928692061580962/photos\">Mr. Tr\u1ea7n Ti\u00ean</a>"], "width": 1155}], "scope": "GOOGLE", "place_id": "ChIJtbLI0_WrNTERdiR2MlE7CnU"}, {"reference": "CmRRAAAAyiQko4Cjz9vwlKSlVRCZovAlGoultUtGjWv-8U9hm-6lsmCimkNgZcMtXTNG8M-e7_8N4mKEkyh5pRDV6h0OV-S3JpfgDRWQMssuKa556SQEWh3NJt5nyC4Y_tzWos6FEhA2fEJDkfnOZrsz48uzdSfwGhSI69-QlzHxvl9TIDnKOjaSELnUeA", "rating": 1, "geometry": {"viewport": {"northeast": {"lat": 21.0304492302915, "lng": 105.8363729302915}, "southwest": {"lat": 21.0277512697085, "lng": 105.8336749697085}}, "location": {"lat": 21.0290887, "lng": 105.835044}}, "name": "ATM ACB", "icon": "https://maps.gstatic.com/mapfiles/place_api/icons/atm-71.png", "opening_hours": {"weekday_text": [], "open_now": true}, "id": "d25538c6277ed3a4f7c6d932ac254447c0b676c6", "types": ["atm", "finance", "point_of_interest", "establishment"], "vicinity": "32 T\u00f4n \u0110\u1ee9c Th\u1eafng, V\u0103n Mi\u1ebfu", "scope": "GOOGLE", "place_id": "ChIJkYtRKpmrNTER_MHsAuBKhXw"}, {"reference": "CmRSAAAA2pKlVucx9jafaBX7O2gvrBS7_jjXCk067X4E0KSMeaPQDJgjAfuXOo12nu3fN0Ow7hlkE-FMB6qJusGzn8JsNZ5xdpEXxJfNfFbx3GW403bjS87qOLYZOEjruk5Ib4z9EhAxMcraJS9ZAGReq-YVpN6XGhQs8ulXE8THdd8dQwChn17DQ2iF1w", "geometry": {"viewport": {"northeast": {"lat": 21.0305540302915, "lng": 105.8458983802915}, "southwest": {"lat": 21.02785606970849, "lng": 105.8432004197085}}, "location": {"lat": 21.0292115, "lng": 105.8445114}}, "name": "ATM ACB", "icon": "https://maps.gstatic.com/mapfiles/place_api/icons/atm-71.png", "vicinity": "48 Ph\u00f9ng H\u01b0ng, H\u00e0ng B\u00f4ng", "id": "5ffea47483a3d64a7a36651c8a19d525fef992cc", "types": ["atm", "finance", "point_of_interest", "establishment"], "scope": "GOOGLE", "place_id": "ChIJof91RZarNTERP8grnOb8Gbc"}, {"reference": "CmRSAAAAgJ-8-NgBsleSpAPaBr2L_7-Q2CQxOzl_-ZhAsbsQSd_tcMUTyirnZua41Tvnm_G9qKVeLGenJidG8bSFczkNyO8kBbpUadqoSVdzl-5oWwAulAR7K31EgyTNXTQeGV6oEhBamDTnbo1qixzfSNzcW65RGhSXg6aWPo-f_54r-Fd4kFZ7IoYP3w", "rating": 4.5, "geometry": {"viewport": {"northeast": {"lat": 21.0353371802915, "lng": 105.8509322802915}, "southwest": {"lat": 21.0326392197085, "lng": 105.8482343197085}}, "location": {"lat": 21.0340049, "lng": 105.8495814}}, "name": "Exk Atm", "icon": "https://maps.gstatic.com/mapfiles/place_api/icons/atm-71.png", "opening_hours": {"weekday_text": [], "open_now": true}, "id": "3891e93e0971732fa01e208dc8d77c61a04f534c", "types": ["atm", "finance", "point_of_interest", "establishment"], "vicinity": "36 H\u00e0ng B\u1ed3, H\u00e0ng \u0110\u00e0o", "scope": "GOOGLE", "place_id": "ChIJCVMHAr-rNTERIdNYFupiZ5M"}, {"reference": "CmRRAAAA31jYH7osLoXLOQPp0jQ_C3zzxQkGMuNRj5fk4RmOJDO_8OZKJSa7bsO6VI-kPUqd44qGRZmKHC1VpgxYp6PGagjgKG1gw-_Dtf_tLWiPQDa5bpU0YJwtSkhAzJXt6NXmEhAaxhytXxRWjn-YLGHPhmgUGhS-jxBcxNDbHzi24evOCZZ9zjVQnw", "vicinity": "7 Ng\u00f5 G\u1ea1ch, H\u00e0ng Bu\u1ed3m", "geometry": {"viewport": {"northeast": {"lat": 21.0377107802915, "lng": 105.8518102802915}, "southwest": {"lat": 21.0350128197085, "lng": 105.8491123197085}}, "location": {"lat": 21.0363962, "lng": 105.8504712}}, "name": "Techcombank - Atm", "icon": "https://maps.gstatic.com/mapfiles/place_api/icons/atm-71.png", "opening_hours": {"weekday_text": [], "open_now": true}, "id": "ef51bb570836a70f3e120966989ecd11e6d9ac15", "types": ["atm", "finance", "point_of_interest", "establishment"], "scope": "GOOGLE", "place_id": "ChIJf9rQMr-rNTERmnOHMDFbp2M"}, {"reference": "CmRRAAAAyHlMCz3iOvavGfTQIwhKwvJHRV9FtCzBHpX2xzNdDNMmX8zLndwwEDJlPdgvFmjL_alHUBsY6lVOkw-6Tr-FIYmfyUmAW02DOMMbQzJEDSHUjjbUOTH6ftytu5i_ja-GEhCw1Q8oQoAvNpkkpQ5eXCYAGhRMDQkj9lRqjnnMCkdRRqCzFfkNHw", "name": "ANZ ATM", "vicinity": "14 L\u00ea Th\u00e1i T\u1ed5, H\u00e0ng Tr\u1ed1ng", "opening_hours": {"weekday_text": [], "open_now": true}, "id": "7c91dca71fbedc810794583bbf91447b28e82dbf", "scope": "GOOGLE", "geometry": {"viewport": {"northeast": {"lat": 21.0306466802915, "lng": 105.8525808802915}, "southwest": {"lat": 21.0279487197085, "lng": 105.8498829197085}}, "location": {"lat": 21.0292923, "lng": 105.8511804}}, "rating": 4, "icon": "https://maps.gstatic.com/mapfiles/place_api/icons/atm-71.png", "types": ["atm", "finance", "point_of_interest", "establishment"], "photos": [{"height": 3984, "photo_reference": "CmRaAAAA4jbrmHdO9BZe43SP-l91OmBqxCzHByhWmzEEsHe02VNxcAW9_rrCGTzj_ud8wHWMEJQxys00oPL7pM7IImtaWgHxp0-uFDxbFVsV7e3SbPYItKsOPwaiwpGu1AgNBhN0EhDzBKpzVffy3bPst9Ws6WZuGhQ2CWlfG3lTOCslM5ge-hL62b1QuQ", "html_attributions": ["<a href=\"https://maps.google.com/maps/contrib/101810550452727997275/photos\">Trinh Khanh Du</a>"], "width": 2988}], "place_id": "ChIJi3NNQJWrNTERYReBeoqz7EQ"}, {"reference": "CmRSAAAAkLbqWJiqnILrQ8KC5xpVeQbDWDT7GG3QjllsICSe6Evw_MwI1dnpRZdTFkx1tBezSl0oYT91XUViyGEWatLMSZlwnz3VbHyR2zKlyTo7s_JuG5yC1dr_9zQn7LeyP9XyEhA3gD5YQFRbKfK_hy2C6x36GhQf7Yy6lQnRYNuBVApVX2Yati6f3Q", "rating": 4.5, "geometry": {"viewport": {"northeast": {"lat": 21.0412306302915, "lng": 105.8475185802915}, "southwest": {"lat": 21.0385326697085, "lng": 105.8448206197085}}, "location": {"lat": 21.0398251, "lng": 105.8460339}}, "name": "Vietinbank - Atm", "icon": "https://maps.gstatic.com/mapfiles/place_api/icons/atm-71.png", "vicinity": "7 Phan \u0110\u00ecnh Ph\u00f9ng, H\u00e0ng M\u00e3", "id": "d277721d91c6c78777af03b3116e93778d39076c", "types": ["atm", "finance", "point_of_interest", "establishment"], "photos": [{"height": 3771, "photo_reference": "CmRaAAAASg2VsLU8OBWdMiHpexbdln70eaSyoW2RaUaM3WzoWeITCkfPbhinyGCMz1C_gPytXMrR3d9V7ovrYfozj5qVnHZg2u-AfZ8mQloZ3YmXfnIskPcZxq8Ddk87iW-4-pwVEhDhLiCLBqvFZE1gyMKdP84rGhQX2ijLvo4IJFrsJI6HPb8DiWW7Mw", "html_attributions": ["<a href=\"https://maps.google.com/maps/contrib/100530652215886930740/photos\">Cuong Nguyen Ngoc</a>"], "width": 2121}], "scope": "GOOGLE", "place_id": "ChIJ54R8K7qrNTERV7oRXxBmJ-I"}, {"reference": "CmRSAAAA1TADacFMUhcMkE5s3X-coL3hATByTgqm2ELlDElqVLU0e3WJOYeLXkf4GaKsvz6CoJ_AE61sKSukVEzXPTes-gXBahkqaiFsbvsxwIttcHaUqJ7QA9x57r8vv0vNSaT9EhCOUfRoGVQ0ZJ9U8Z4ur7llGhQ4CNvP-gu9Ge3hFKSiYfVtc1pSXw", "geometry": {"viewport": {"northeast": {"lat": 21.0265396802915, "lng": 105.8515353802915}, "southwest": {"lat": 21.0238417197085, "lng": 105.8488374197085}}, "location": {"lat": 21.0251907, "lng": 105.8501864}}, "name": "ATM Vietinbank - Hoan Kiem Transaction Office", "icon": "https://maps.gstatic.com/mapfiles/place_api/icons/atm-71.png", "vicinity": "30, Ph\u1ed1 Hai B\u00e0 Tr\u01b0ng, Ph\u01b0\u1eddng Tr\u00e0ng Ti\u1ec1n, Qu\u1eadn Ho\u00e0n Ki\u1ebfm", "id": "061b261887a4b8b9b20cf8906c8c2a91292078c7", "types": ["atm", "finance", "point_of_interest", "establishment"], "scope": "GOOGLE", "place_id": "ChIJJXRlg5SrNTERcSIobTEyOuM"}, {"reference": "CmRSAAAAWiAkbmZt6QWA1kv1Tt5shVUg5EtBDTzKC1Z43zPdHmw6Dz55S01raZI9U2MWEiQnzKUQ8Oz8nT7Smr3dgkno1FBFjSl0I06Ypc3rfbfOyLeDtQ1y5PEYdUyPi4PHmRUZEhAKPQhqV32Q2XDBP3I7IVhuGhRDWvz5KIWHnmj-eAO-ok8CWxfHvg", "name": "Vietcombank - Atm", "vicinity": "32 Quang Trung, Tr\u1ea7n H\u01b0ng \u0110\u1ea1o", "opening_hours": {"weekday_text": [], "open_now": true}, "id": "03b7c8dacce30cee0a5e276a8a9a1648ced47929", "scope": "GOOGLE", "geometry": {"viewport": {"northeast": {"lat": 21.0219623802915, "lng": 105.8494792302915}, "southwest": {"lat": 21.0192644197085, "lng": 105.8467812697085}}, "location": {"lat": 21.0206253, "lng": 105.8480901}}, "rating": 4.3, "icon": "https://maps.gstatic.com/mapfiles/place_api/icons/atm-71.png", "types": ["atm", "finance", "point_of_interest", "establishment"], "photos": [{"height": 2240, "photo_reference": "CmRaAAAAp8zSbOu7VOl3a8msYoh_T2PEYMkE10orJXWqCHdn1sKQ4whUo0H8kGQSxMMNnJHHrz5L5DR-vZfHUY4xHvh7ErooqrSlMpVCMAT05or_iV-sHN_VJYXkt6QjFSR1sLFVEhB4kwIR6XBPoPpRkkTIMno8GhRO-s2Bu9yN2mit0mB_en7y_d1FbA", "html_attributions": ["<a href=\"https://maps.google.com/maps/contrib/116300909042296618817/photos\">truong thang Pham</a>"], "width": 1344}], "place_id": "ChIJac4UbZKrNTERomFHHnlsJPQ"}, {"reference": "CmRRAAAAp7lm0iU2LyqvK7FTEV6639912NyPhXgMmZTYq5jcXAeJQ1VXLV9bOIkDTaAPESF9P_7Uj2NLa5tzQCzSE2APTVeflmNivUzoBmGYToyYYFNdQ-G042w1qYTabF_g7afFEhDjSQ0J8c7LQ4I5Jvse1a0_GhS-uf9F0a_lhcrpFuDCVmnPyYpsVg", "geometry": {"viewport": {"northeast": {"lat": 21.0224936802915, "lng": 105.8541109802915}, "southwest": {"lat": 21.0197957197085, "lng": 105.8514130197085}}, "location": {"lat": 21.0214353, "lng": 105.8528691}}, "name": "Seabank - Atm", "icon": "https://maps.gstatic.com/mapfiles/place_api/icons/atm-71.png", "vicinity": "25 Tr\u1ea7n H\u01b0ng \u0110\u1ea1o, H\u00e0ng B\u00e0i", "id": "c600f3f7b1918abaa01825673f1da404e955bc8b", "types": ["atm", "finance", "point_of_interest", "establishment"], "scope": "GOOGLE", "place_id": "ChIJc_zgK-2rNTERHm502cFxzRg"}, {"reference": "CmRSAAAAbJ51xlXHiarqtNm1jWXiDdwDZVWZ271atzV_7AbBdYTF1angSgxAwJ8upu95ey-XUVe2MjLKnQo1Mcg5a1cY_bjrfGYseqlMDHTyUd5wejE_5B_B_fQAlWRqiwDYRRrzEhAZ6pWC-T4emdbMKhORaPO_GhQvSF3voPjxfnEyWezuYUBMoiLDdg", "vicinity": "24, \u0110\u01b0\u1eddng Hai B\u00e0 Tr\u01b0ng, Qu\u1eadn Ho\u00e0n Ki\u1ebfm", "geometry": {"viewport": {"northeast": {"lat": 21.0254479802915, "lng": 105.8551289802915}, "southwest": {"lat": 21.0227500197085, "lng": 105.8524310197085}}, "location": {"lat": 21.024099, "lng": 105.85378}}, "name": "ATM lBank For Investment And Development Of Vietnam (BIDV)- Trang Tien Trade Centrer", "icon": "https://maps.gstatic.com/mapfiles/place_api/icons/atm-71.png", "opening_hours": {"weekday_text": [], "open_now": true}, "id": "1fdff8c5aec8f866dbec6a4aaca51539dd3adfc2", "types": ["atm", "finance", "point_of_interest", "establishment"], "scope": "GOOGLE", "place_id": "ChIJswjMo-yrNTERRgoyYReIacA"}, {"reference": "CmRRAAAA6537BJBfzWxWtwS-GXAycWUiEwAQp95SsR32RI5nFb8iYeazc34oQpRDKfxBouB3t5qFMS-IozyOeeBlvAELd_ANk4AujR0DdkENLdUYPizKiBi6cJwEKKhOd_XXYEq0EhDedy_7t_cx2UrXeabPvDiiGhSfkqDkDwYgezpHWtRWvG2eNrXIRg", "rating": 3.2, "geometry": {"viewport": {"northeast": {"lat": 21.0245372302915, "lng": 105.8504275802915}, "southwest": {"lat": 21.0218392697085, "lng": 105.8477296197085}}, "location": {"lat": 21.0231813, "lng": 105.8491002}}, "name": "Agribank - Atm", "icon": "https://maps.gstatic.com/mapfiles/place_api/icons/generic_business-71.png", "vicinity": "23 Quang Trung, Tr\u1ea7n H\u01b0ng \u0110\u1ea1o", "id": "34da08c0b6254e55cc624ca55ba81c678f9aecd8", "types": ["atm", "finance", "point_of_interest", "establishment"], "photos": [{"height": 3456, "photo_reference": "CmRZAAAAFA4yPr7REpKP1x470apopOW6xg6V5cPpXuounwdg8-ZN_2cqhoR5cgGyH8-FvSkmXEa4xiFoDF6HfV0I9Irgr7KuROqT-8RtK2HgRCNY3WYu32SAUu7Jpm7MBLdpX-meEhD0XjiHNiYJN5o-u7WVZDkSGhTrfZYx6fitAxRlNGbBrbeVWPF5bA", "html_attributions": ["<a href=\"https://maps.google.com/maps/contrib/111858267326943893998/photos\">Dat Nguyen Van</a>"], "width": 4608}], "scope": "GOOGLE", "place_id": "ChIJtSn9pJOrNTERmZF9lyTAclM"}, {"reference": "CmRRAAAA5ObnEaiU9AW3sublMRL9zASYkxl92BwA2lWCtYJQRB4AxOMrjRZGKdWE_izn4e8nngsMmGrAOQEpGRi_30DLj9Hh6GicWkGVxRBnhmwqQU8op8vTF3f1gysdYPKfKHyvEhDZlOEg50UvkkqjPpDC5xj6GhTErPSaaq8ts26ZfZgT-3wsuhVUDQ", "rating": 4.5, "geometry": {"viewport": {"northeast": {"lat": 21.0141987802915, "lng": 105.8350751802915}, "southwest": {"lat": 21.01150081970849, "lng": 105.8323772197085}}, "location": {"lat": 21.0128498, "lng": 105.8337262}}, "name": "ATM Military Bank - Hoang Quoc Viet 2", "icon": "https://maps.gstatic.com/mapfiles/place_api/icons/atm-71.png", "vicinity": "145, Ph\u1ed1 \u0110\u1eb7ng V\u0103n Ng\u1eef, Ph\u01b0\u1eddng Ph\u01b0\u01a1ng Li\u00ean, Qu\u1eadn \u0110\u1ed1ng \u0110a", "id": "320e07d42263c6e2919411d951cdaa8c73a808cd", "types": ["atm", "finance", "point_of_interest", "establishment"], "scope": "GOOGLE", "place_id": "ChIJfwuKPIGrNTERWmney4E-FgM"}, {"reference": "CmRRAAAAhPs4CiXwgJcQ9EG6UUWydZX5jb57J2naYKpXBj7b3v4_nqmTF-1UJ7j90vMyTWuDxnxqnuU-YA53bE994OHp2rMR-xkeej6y8bmveiMmbIKyzkoriRmSnDy-IE5LjvH3EhDyiY6pzdtDZ8S_-Rxty37CGhSM9DEYXherdqjocmRNYHNi46dCiQ", "geometry": {"viewport": {"northeast": {"lat": 21.0122695802915, "lng": 105.8505090302915}, "southwest": {"lat": 21.0095716197085, "lng": 105.8478110697085}}, "location": {"lat": 21.0109198, "lng": 105.8492251}}, "name": "Mb - Atm", "icon": "https://maps.gstatic.com/mapfiles/place_api/icons/atm-71.png", "vicinity": "29 Ph\u1ed1 L\u00ea \u0110\u1ea1i H\u00e0nh, L\u00ea \u0110\u1ea1i H\u00e0nh", "id": "53724d1e605701ffe3255edd2def24464905744e", "types": ["atm", "finance", "point_of_interest", "establishment"], "scope": "GOOGLE", "place_id": "ChIJQ6GVrourNTERxSeqi_xQw1Y"}, {"reference": "CmRRAAAAftrJCiRcTdYeJwDnixzO6AgXKjuwPTf5uPsUN4bmW7cKMhrhuOYC2pfLgwqh38cD27r0jBD-6eUdNXJ_bKnFgPZ3JGWF5kKYmv-srzsnfpHPjI8vLBJtGWAUUifQ_TqWEhDwm7w8oVIEIidzsMu-21S9GhQNwt7Y1VMqMB8ugXHmRr4XGbQlWA", "rating": 5, "geometry": {"viewport": {"northeast": {"lat": 21.0313873302915, "lng": 105.8518123802915}, "southwest": {"lat": 21.0286893697085, "lng": 105.8491144197085}}, "location": {"lat": 21.030002, "lng": 105.85049}}, "name": "Vib - Atm", "icon": "https://maps.gstatic.com/mapfiles/place_api/icons/atm-71.png", "vicinity": "22 B\u00e1o Kh\u00e1nh, H\u00e0ng Tr\u1ed1ng", "id": "f089f9e10f8b0e02b3279190e6c2209fdf0c33b3", "types": ["atm", "finance", "point_of_interest", "establishment"], "scope": "GOOGLE", "place_id": "ChIJZd6EZZWrNTERIMO9ENzsnX8"}, {"reference": "CmRRAAAAjBnRHflLrrTFUX8oFseD6_EpZRZcUbuKKdnBHg8pa2L24_cLww33wkTQ-6l3FM1s5UnkTp4XAutQub33GxwggqsmWhjVYYRFJW4wvIx9bvj842-SXad8b8QYbhH7ADMDEhBliXiuJdnADKhTFMel5RtgGhSf8-zcEN8Ht9oxYb7EkQ4Yn7thNw", "geometry": {"viewport": {"northeast": {"lat": 21.0319929302915, "lng": 105.8426750302915}, "southwest": {"lat": 21.0292949697085, "lng": 105.8399770697085}}, "location": {"lat": 21.030676, "lng": 105.8413364}}, "name": "Mb - Atm", "icon": "https://maps.gstatic.com/mapfiles/place_api/icons/atm-71.png", "vicinity": "28 \u0110i\u1ec7n Bi\u00ean Ph\u1ee7, \u0110i\u1ec7n Bi\u00ean", "id": "79a5de904274140c03c98c6259f85d4d93402b3e", "types": ["atm", "finance", "point_of_interest", "establishment"], "scope": "GOOGLE", "place_id": "ChIJVWEWoXWrNTERfIDqVolLKwY"}, {"reference": "CmRRAAAA069SO9iVVfspx94fCxmbatbvbQRs5iWsSaL2u7BVXmDZcFCUb2izzjeNqDtLnLXA7ghTOMu3jyQx5anq7_AmXehTjvfH1m6gtWME0chPTdqH2GUJVvXKn87OeQ8kVwoUEhB9oXrEAVkHxK2haSOHdNO8GhSknXx5AA06FCd_eyDhShPTLxvuRw", "geometry": {"viewport": {"northeast": {"lat": 21.0156471802915, "lng": 105.8490517802915}, "southwest": {"lat": 21.0129492197085, "lng": 105.8463538197085}}, "location": {"lat": 21.0142906, "lng": 105.8477517}}, "name": "Habubank - Atm", "icon": "https://maps.gstatic.com/mapfiles/place_api/icons/atm-71.png", "vicinity": "11 Th\u1ec3 Giao, L\u00ea \u0110\u1ea1i H\u00e0nh", "id": "a8434089f3ddba7ad0a7e0ae9bee815d5a0008a0", "types": ["atm", "finance", "point_of_interest", "establishment"], "scope": "GOOGLE", "place_id": "ChIJxcNL8HWsNTERNHuBJWuHniQ"}, {"reference": "CmRSAAAAhmjgZIpyD1XoNHkdzmRvsqVY1d_3Fo9UHUvfgaQvNNIif9sQdF3ObEaYAAVU9M5Ko72zifTm8iYBkljksmyfKnOfMFCAwbf1GVNh2ocLnOQlYWB82LL6H2K-fFvEW29rEhCh2JilSy5qs3esTzLzMGq3GhRl-hgccPxTBdcmvt1U18zoXsBYSA", "geometry": {"viewport": {"northeast": {"lat": 21.0238304802915, "lng": 105.8551189802915}, "southwest": {"lat": 21.02113251970849, "lng": 105.8524210197085}}, "location": {"lat": 21.0224815, "lng": 105.85377}}, "name": "ATM Vietinbank - Fatherland Front Committee VN", "icon": "https://maps.gstatic.com/mapfiles/place_api/icons/atm-71.png", "vicinity": "29, Ph\u1ed1 L\u00fd Th\u01b0\u1eddng Ki\u1ec7t, Ph\u01b0\u1eddng H\u00e0ng B\u00e0i, Qu\u1eadn Ho\u00e0n Ki\u1ebfm", "id": "8788d0c656bcc15c737324f177d18a7913347231", "types": ["atm", "finance", "point_of_interest", "establishment"], "scope": "GOOGLE", "place_id": "ChIJ9wsbw-yrNTERnr5XLlJrk4c"}, {"reference": "CmRRAAAAX4s-69fLCJOx-2aouU3ZMRwJ4YvxBt_myUq4zKQoLNNJkbkiCXv9aMNOojNFWOZFFiPsmwJ5H0pmjgksFBI3pGGLy6NQrtQx8IjDCJ7IxQpF1cMQc6DoMENPZi7TAvTvEhCJsFnymqAXDudOJWQ5XkWOGhTSaowZQtMvnJOynSt-gNb06O_TCg", "geometry": {"viewport": {"northeast": {"lat": 21.0266071302915, "lng": 105.8605860802915}, "southwest": {"lat": 21.0239091697085, "lng": 105.8578881197085}}, "location": {"lat": 21.0252573, "lng": 105.8592128}}, "name": "ATM VIB", "icon": "https://maps.gstatic.com/mapfiles/place_api/icons/atm-71.png", "vicinity": "6 Tr\u00e0ng Ti\u1ec1n", "id": "132a5800b8630b08829adb49a11dd48ba0f739a5", "types": ["atm", "finance", "point_of_interest", "establishment"], "scope": "GOOGLE", "place_id": "ChIJCf4hQ-mrNTER2W_ttJOGPS0"}, {"reference": "CmRRAAAAfiUWZjOk7q7xyRHGgXd_5UexlEO6M451Z_8cpwYZnmXcN0kyJxFDw7U_nLkuG1sK-Eh0MgepIuaKPDjZ-nccJ5bs3hsE9hF84vhUrKY_-stqVHyGv1umhppzB5s9tx7OEhAUkimck9XjVktCJduXd8nYGhTjgUNa_a_s6bA1q3B_K0pzyWkMTQ", "geometry": {"viewport": {"northeast": {"lat": 21.0215420302915, "lng": 105.8427842802915}, "southwest": {"lat": 21.0188440697085, "lng": 105.8400863197085}}, "location": {"lat": 21.0201934, "lng": 105.8414161}}, "name": "Mb - Atm", "icon": "https://maps.gstatic.com/mapfiles/place_api/icons/atm-71.png", "vicinity": "132 L\u00ea Du\u1ea9n, Kh\u00e2m Thi\u00ean", "id": "f727734a7786a64c27503ea1aa11e09d067e589c", "types": ["atm", "finance", "point_of_interest", "establishment"], "scope": "GOOGLE", "place_id": "ChIJxdBBA5CrNTERAHSnmfw7UgQ"}, {"reference": "CmRSAAAAPC2i6l4FdUwTYCY9nKn2c1JXaBUrb8JRD3849ZSZGLXTDwIKrRyuEjr4p_PifxsvO7N544_JACZ3nl5Eaep4tyUyeLewntPQRmkrOoI7m5dANt5URrqOQf0TvXj-ZLMWEhAIbok_SuEB0F6C8mFglpLZGhSsFjORFxmVgOaWdO_eE7yAQz8NPg", "name": "ATM SHB TTKD", "vicinity": "81 Tr\u1ea7n H\u01b0ng \u0110\u1ea1o", "opening_hours": {"weekday_text": [], "open_now": true}, "id": "74b9826842949bd7516ac53bdc38a9af0b637efc", "scope": "GOOGLE", "geometry": {"viewport": {"northeast": {"lat": 21.0237934302915, "lng": 105.8484774302915}, "southwest": {"lat": 21.0210954697085, "lng": 105.8457794697085}}, "location": {"lat": 21.02246599999999, "lng": 105.847136}}, "rating": 5, "icon": "https://maps.gstatic.com/mapfiles/place_api/icons/atm-71.png", "types": ["atm", "finance", "point_of_interest", "establishment"], "photos": [{"height": 432, "photo_reference": "CmRaAAAADGOeleKv9Xkn-9qQCxyaGtR_GFimVmPSikbP48mt2OmyKsdlXbYwN_k-m1K8UJRwNeKfc1Mc5ow0Ot_eAmH9vogS4ZmRWBM70a6HCooafZV7CY744GzPCAL-Ec4FIGbaEhBr6JVFs5Vf-Tnw8HZiM3IEGhT7kga203iFUpIRGg8xEcmjv6Ti7A", "html_attributions": ["<a href=\"https://maps.google.com/maps/contrib/105577113324469637633/photos\">Quang Nho B\u00f9i</a>"], "width": 344}], "place_id": "ChIJZyqk05OrNTER9gV-uWX0KLI"}, {"reference": "CmRSAAAA7vCUBSbQWW-_zgbjd_MWzRifp61sFFldfr7XSfSrUcUzWRyCbUuiuPcTcnwnVNezuvEl6r-lC1a2BI2wnpRtp-8snkDfG0Cn4dbdLUUDPxXRRYVYrJWsUuwDoPkiIRrxEhC8VYC1UMbmEjp2nshq_bx7GhR3DvMytJ6bEswn2NK40IKYq--dQg", "vicinity": "30 L\u00fd Th\u01b0\u1eddng Ki\u1ec7t, H\u00e0ng B\u00e0i", "geometry": {"viewport": {"northeast": {"lat": 21.0239573302915, "lng": 105.8544686302915}, "southwest": {"lat": 21.0212593697085, "lng": 105.8517706697085}}, "location": {"lat": 21.022612, "lng": 105.8531213}}, "name": "Eximbank - Atm", "icon": "https://maps.gstatic.com/mapfiles/place_api/icons/atm-71.png", "opening_hours": {"weekday_text": [], "open_now": true}, "id": "67f01b22a2c915953cc814d50df1fe5d431967c8", "types": ["atm", "finance", "point_of_interest", "establishment"], "scope": "GOOGLE", "place_id": "ChIJD_sIz-yrNTERqJK9FjOOZdw"}, {"reference": "CmRSAAAAOKqHrJvlQk5cGn1xxinYbMeNTHnAyDu_YgSZ1WZvhyS_UfxxRLygdD_54oE_JIh95LP4bnl-ToF04Fo69aGT0D4QopSugDWOjaqzgjgYSu3JcCmg1pGkJbA3lAjqZrY_EhA_oqEGrVMoH76rPbvzxSqBGhQZ5cy-vBs4OWTMiUw6_0Q7FpZHuw", "vicinity": "38 H\u00e0ng V\u00f4i, Ch\u01b0\u01a1ng D\u01b0\u01a1ng", "geometry": {"viewport": {"northeast": {"lat": 21.0311740802915, "lng": 105.8581757802915}, "southwest": {"lat": 21.0284761197085, "lng": 105.8554778197085}}, "location": {"lat": 21.0298601, "lng": 105.8568148}}, "name": "Bidv - Atm", "icon": "https://maps.gstatic.com/mapfiles/place_api/icons/atm-71.png", "opening_hours": {"weekday_text": [], "open_now": true}, "id": "f858d7929dad6fa5df94ae17da38ac9ff36e1f22", "types": ["atm", "finance", "point_of_interest", "establishment"], "photos": [{"height": 3264, "photo_reference": "CmRaAAAAsRJkLlmKangtuoSbigAtNDdotSej3R10Yp5a5lnEpoS8WTsqBup0WMRDMi5ljGMiYm5g1xAPGkWgJl6JQPVk5HWEjLQ3eaaVidH3vVx8IWzwc53CSZu3nTe1zGirS2XdEhA7m14wIZuipkOumBLICnhsGhSrpX_Rwvp9QbV2dDwwvKZP1e9FSQ", "html_attributions": ["<a href=\"https://maps.google.com/maps/contrib/114105808613703982054/photos\">C\u01b0\u1eddng Qu\u1ea3n</a>"], "width": 2448}], "scope": "GOOGLE", "place_id": "ChIJtyURdeqrNTERiqnBwU9VY8g"}, {"reference": "CmRRAAAA-EOafsi1wyxD6lT9beXG-6w_PEAqMDb5wrmi5WzseLhreY569Ey2LMJK7X0dh6hWkxrBJMFI7XQTBXZCRcOiJ41h-AD4KlothFzIY2ipFiB3BK-HfvkJnxU1XrwdMAmDEhDVyZ3xpErWeCqxGG2ngeBSGhRXhkQMK1-FMGAuEmPd8zn7YINBYw", "vicinity": "18 Ph\u1ed1 Ng\u00f4 Quy\u1ec1n, Tr\u00e0ng Ti\u1ec1n", "geometry": {"viewport": {"northeast": {"lat": 21.0263203802915, "lng": 105.8566403802915}, "southwest": {"lat": 21.0236224197085, "lng": 105.8539424197085}}, "location": {"lat": 21.0249454, "lng": 105.855385}}, "name": "ATM Oceanbank", "icon": "https://maps.gstatic.com/mapfiles/place_api/icons/atm-71.png", "opening_hours": {"weekday_text": [], "open_now": true}, "id": "bd0c68a2ae49d3ec4a1ffa2a639e4b3a418b50a5", "types": ["atm", "finance", "point_of_interest", "establishment"], "photos": [{"height": 3264, "photo_reference": "CmRaAAAAeV1suaBffmNN8Me3Tr3E9ZY8Zbb0J0sHlxC-CGcxZ7Md-XEMx6C77wMpX-EJMrDWwCPOiZPhU39nuXVJ3LMRXFPVJeXZq8r12M5FxD4ugGrMmv9rcNPAllNEWHtRblnAEhAWv9Ewt3Cgo9ZGwv7IQ6ewGhRQd9pdJ4Q6QPTCmHoytDloVgEKdg", "html_attributions": ["<a href=\"https://maps.google.com/maps/contrib/114105808613703982054/photos\">C\u01b0\u1eddng Qu\u1ea3n</a>"], "width": 2448}], "scope": "GOOGLE", "place_id": "ChIJjRlkeOurNTERkfvPIzVVTzY"}, {"reference": "CmRRAAAAbSCrgiUNaWnzv5-dyZ31MKMwMX9XaSNcREcVlORlZ7Xv_v73xz36BOt_p-cxdyU7jr_Tz1Yasd1BRUo61GoV95J3Cb2KEL7uhlGTb7EUL2fMmJcM4ehk0p71MfJr0s5vEhCsqE0XPuRrWEitd9WfvQbqGhTWFw_QQw3s8edkneww8zZa2A6QNw", "name": "Sacombank", "vicinity": "01 Ng\u00f5 Huy\u1ec7n, Q.Ho\u00e0n Ki\u1ebfm", "opening_hours": {"weekday_text": [], "open_now": true}, "id": "868a96ea58a0b3ddd9e548e16904a088fc8f2225", "scope": "GOOGLE", "geometry": {"viewport": {"northeast": {"lat": 21.0310483302915, "lng": 105.8503302802915}, "southwest": {"lat": 21.02835036970849, "lng": 105.8476323197085}}, "location": {"lat": 21.029729, "lng": 105.8491}}, "rating": 5, "icon": "https://maps.gstatic.com/mapfiles/place_api/icons/atm-71.png", "types": ["atm", "finance", "point_of_interest", "establishment"], "photos": [{"height": 608, "photo_reference": "CmRZAAAAnb30NtIDqD7wbwpxQPk_8tjYVUEnzmbGjFORdwUk02FchC2R_wBzHtDEYu8ikz2MfMhFfzSSiwhAv4SHRwG6OAm3SqaOaTOXm-Zdq9uKjNK4IKrQ0uZfN0UVuAErP_J-EhDYOsEpKKtPfp5YfwdEW5f4GhSK2tvLvsjEBQ7Paxj8v_x6_OgKSw", "html_attributions": ["<a href=\"https://maps.google.com/maps/contrib/102881163700442822822/photos\">ATM Sacombank - 01 Ng\u00f5 Huy\u1ec7n</a>"], "width": 1080}], "place_id": "ChIJVUSZkJWrNTERrA0Y5NLc4CU"}, {"reference": "CmRSAAAAVXBq2Tv8W8REc1c2khGlRVy4KvET8JS3W69KnBPeIU3rX6Y63fwSp7W-TgcpFAEKJQDh4O-s__au425_0nObbE_vbwtoWbZSJmDAFPzAzdmirIy-7b_bQMoJf2efdzWLEhBHHVrDRub2IdB4nDQwConvGhQaaxK7fWWZG5bidL-uIpmRDKAuzw", "name": "ATM Sacombank - PGD L\u00fd Nam \u0110\u1ebf", "vicinity": "10A3 Ph\u1ed1 L\u00fd Nam \u0110\u1ebf, Q.Ho\u00e0ng Ki\u1ebfm", "opening_hours": {"weekday_text": [], "open_now": true}, "id": "55ba0d121eb3873baf43cc219eaf8df07d460854", "scope": "GOOGLE", "geometry": {"viewport": {"northeast": {"lat": 21.0398625302915, "lng": 105.8469927302915}, "southwest": {"lat": 21.03716456970849, "lng": 105.8442947697085}}, "location": {"lat": 21.038502, "lng": 105.84562}}, "rating": 5, "icon": "https://maps.gstatic.com/mapfiles/place_api/icons/atm-71.png", "types": ["atm", "finance", "point_of_interest", "establishment"], "photos": [{"height": 608, "photo_reference": "CmRaAAAAFN-JritQeqJr4b5Ap3tJqaeCcmB_QYwi-0-Rzl8aZ_SZzh9reUYnrJbFT5F_BXKagiPNycdEggt0ej5QAShel3KCI2Ao18R6tKLSCQe7oYymhXnXcWMA4uD_QHvNMBl7EhAoS32PaLKX7ELYfmyRF4KEGhTJq_86J5lT1IHjRYT077ntxJZ6_g", "html_attributions": ["<a href=\"https://maps.google.com/maps/contrib/115053931417993344685/photos\">ATM Sacombank - PGD L\u00fd Nam \u0110\u1ebf</a>"], "width": 1080}], "place_id": "ChIJ0THtw7urNTERo3W3BpfPw78"}, {"reference": "CmRSAAAAay7bvFFn096IyyXTmqmCd3Tfwm-E_FixwU8KlfVjc2CDZ3Ij0PBOVrp3pdjsJ9tQu157mR8cWWmRg2zE9Yrgm7wPl_Ms5DuqmeumEny1YMHbpRr7cYy1fMN5YyQDqbZREhDh4cxwa_O1081z5e858HOTGhQ0RBtumW17kcLq7YywZ4jH-RZO1w", "rating": 3, "geometry": {"viewport": {"northeast": {"lat": 21.0177129802915, "lng": 105.8341090802915}, "southwest": {"lat": 21.01501501970849, "lng": 105.8314111197085}}, "location": {"lat": 21.016364, "lng": 105.8327601}}, "name": "ATM Machine Saigonbank - Nam Dong Trading Room", "icon": "https://maps.gstatic.com/mapfiles/place_api/icons/atm-71.png", "vicinity": "127, \u0110\u01b0\u1eddng La Th\u00e0nh, Ph\u01b0\u1eddng Nam \u0110\u1ed3ng, Qu\u1eadn \u0110\u1ed1ng \u0110a, TP. H\u00e0 N\u1ed9i", "id": "563d53f0c296deeffb640107af88d47bad03e9e6", "types": ["atm", "finance", "point_of_interest", "establishment"], "scope": "GOOGLE", "place_id": "ChIJf8X2x4OrNTER0Na-MyGVB8E"}, {"reference": "CmRSAAAAfEa1DLzgvNvIjLo8Ff13Lx1qsqGlyqwUjsCMelCFVAY-0WPVZxZsUf4w3NvZ-0S7oJFzpOP0djoU1zip4mt4R_xwQbBIzj-_ssG6Qy_mu_jpLIPYsZTF77eweffaHV8CEhBmP_iFTIF-9WVY5aYUqaGiGhSYJgPF1OaW5kMJVamhlK9JVmzElA", "vicinity": "27 H\u00e0ng B\u00e0i,P.H\u00e0ng B\u00e0i", "geometry": {"viewport": {"northeast": {"lat": 21.0246419802915, "lng": 105.8541879802915}, "southwest": {"lat": 21.0219440197085, "lng": 105.8514900197085}}, "location": {"lat": 21.023293, "lng": 105.852839}}, "name": "Sacombank", "icon": "https://maps.gstatic.com/mapfiles/place_api/icons/atm-71.png", "opening_hours": {"weekday_text": [], "open_now": true}, "id": "f3fdb769cdfcccd28db17e1c646d5c3c79bbe68b", "types": ["atm", "finance", "point_of_interest", "establishment"], "photos": [{"height": 608, "photo_reference": "CmRaAAAAeMjIk-aw83ldK_MK250VMPVHVg3EPVri-1zXQKXtA0ohOe2B13U1evuewacJeJ7S-1c6kkynBIBZ9Wn_5ZXAO0pjUtltubvZvViGup1sJQhjLq3vHY1PMB1IxxQ_vZ8TEhDSu95OivLjdK9oVH78iiWYGhQ6TReH1YcpoejsLy6-oy1o-81H0Q", "html_attributions": ["<a href=\"https://maps.google.com/maps/contrib/110097749739986637218/photos\">ATM Sacombank - CN H\u00e0ng B\u00e0i</a>"], "width": 1080}], "scope": "GOOGLE", "place_id": "ChIJBcYbtOyrNTER3yq277_hw5Q"}, {"reference": "CmRRAAAAMajFt5Kfdu0cDcqzgBuqXcYnbgCtGKjFRrlBas8uFF7giPANrUYQhyqNs7x2Nq9K5Nyvx2RokSfgKDXjDn5DdNfpCO-scECbWkaewMZXjOaMsLUIWkbLOQBjBj0Q9jDjEhBc9b6uH05JzvBByo2LWPVKGhSISLeH7Gbeot4SmODeTSrNmgwCvQ", "rating": 4.5, "geometry": {"viewport": {"northeast": {"lat": 21.0206173802915, "lng": 105.8394662802915}, "southwest": {"lat": 21.01791941970849, "lng": 105.8367683197085}}, "location": {"lat": 21.0192684, "lng": 105.8381173}}, "name": "ATM Vpbank - Kham Thien Vpbank", "icon": "https://maps.gstatic.com/mapfiles/place_api/icons/atm-71.png", "vicinity": "No.92, Kham Thien Street, Kham Thien Ward, Dong Da District, Hanoi City", "id": "152f6f7e1eaec3dd30bad6fd52093d32667caf0c", "types": ["atm", "finance", "point_of_interest", "establishment"], "scope": "GOOGLE", "place_id": "ChIJj6KSJoWrNTER3luguWbnDhk"}, {"reference": "CmRSAAAAl4A-BkD__9YFg-bqofX7ddkC-CwzaJYPFhYavFfg0f59EF606XTqDB6znf8Qhh-urFXrNO3sU8PenpAHvnGoy8cXDF25sACam5tE2ehrYCZMQ9f8w2ogERuoBmz_0YGREhAzPJi3PaiGk8YA9KPxSGWRGhRjRF3Vv4nwL8n73gw7VseSf41RJw", "name": "Sacombank", "vicinity": "25A Phan \u0110\u00ecnh Ph\u00f9ng, Qu\u00e1n Th\u00e1nh", "opening_hours": {"weekday_text": [], "open_now": true}, "id": "356169f0f67866a567bc64c43e130749e8bab704", "scope": "GOOGLE", "geometry": {"viewport": {"northeast": {"lat": 21.0414549302915, "lng": 105.8460660302915}, "southwest": {"lat": 21.0387569697085, "lng": 105.8433680697085}}, "location": {"lat": 21.04008899999999, "lng": 105.844755}}, "rating": 4, "icon": "https://maps.gstatic.com/mapfiles/place_api/icons/atm-71.png", "types": ["atm", "finance", "point_of_interest", "establishment"], "photos": [{"height": 608, "photo_reference": "CmRaAAAAU7HsxS62-Sttl_eWgjLFLAqiB94XuuMC1Df2J2hLXoPxSvLpPnxP-H4MoVKpT8eAEcFDE8tI0jCnmaqHLShehDMlftTrPiX5-z8sOplcPW-uhy8jryNaVvTCo5tvLbZ9EhC_5PnmxTAjq7so4z1ESpUSGhT6SQkU9DtnHrguVv5eFluLhdxwmw", "html_attributions": ["<a href=\"https://maps.google.com/maps/contrib/111402962209602766507/photos\">ATM Sacombank - PGD Phan \u0110\u00ecnh Ph\u00f9ng</a>"], "width": 1080}], "place_id": "ChIJy7QOTrqrNTER1BvRWooFXIg"}, {"reference": "CmRRAAAA-gUpQrdYmJnvuAKLysL0A0toIdzTP_IillZpUeKpv5EopriSbRluW9sFpNAZ-R4XvHMqwrCJwBLx7o9HFEtbmoiLSQWS6NZWrVRXiveYdHlsaTu6Q6iY2SbqQe3VnCRTEhAAwI32e8yRd0YVUreeezTrGhSAsFibLGMi_HmgHb-rxKYCn4_1Eg", "geometry": {"viewport": {"northeast": {"lat": 21.0282714302915, "lng": 105.8452431302915}, "southwest": {"lat": 21.0255734697085, "lng": 105.8425451697085}}, "location": {"lat": 21.0269676, "lng": 105.8439075}}, "name": "Saigon Bank - Atm", "icon": "https://maps.gstatic.com/mapfiles/place_api/icons/atm-71.png", "vicinity": "65 Hai B\u00e0 Tr\u01b0ng, C\u1eeda Nam", "id": "f728af1046906318ffdebff67c2dfac7192072a1", "types": ["atm", "finance", "point_of_interest", "establishment"], "scope": "GOOGLE", "place_id": "ChIJ3yzhUaWrNTERXJHebwI_lyw"}, {"reference": "CmRSAAAAg7_U-7nrsFEiGL4vFKnXiycDJdUsYRW7TUMOIcrpri01nt6emM-XHupzuSVKecjvx-EMVKg0mXflVTsVVbEj8A3Mdw97_989ToXUs4VvMRaEfdva2cWY7iMVAd-qC8KEEhDCf-mtymXnIZUfYd43IqeuGhRo7OrTYMQfk5Syw33vjrYAsuv0sw", "vicinity": "1 Ho\u00e0ng Hoa Th\u00e1m, Ng\u1ecdc H\u00e0", "geometry": {"viewport": {"northeast": {"lat": 21.0431693802915, "lng": 105.8366391302915}, "southwest": {"lat": 21.0404714197085, "lng": 105.8339411697085}}, "location": {"lat": 21.041819, "lng": 105.8352899}}, "name": "Saigon Bank - Atm", "icon": "https://maps.gstatic.com/mapfiles/place_api/icons/atm-71.png", "opening_hours": {"weekday_text": [], "open_now": true}, "id": "29faaa8b2f6b27fb5f649e2965229c5093c52361", "types": ["atm", "finance", "point_of_interest", "establishment"], "scope": "GOOGLE", "place_id": "ChIJMaH826WrNTERJBVI5yaKm98"}, {"reference": "CmRSAAAA9qInIp-lDeHNDoC5UMotDjSg6j-I1SPlvjhW4SrjP11o4tot77nUZX8uHzcc4dbt0Y8FEtjIjA_HiedrClkOmZxBbCYFLT5PHFXEkLbEYFnir9JFXZmWbCa8SeftxtxDEhDZzt2XWBrJ7dnms9G1jouKGhTVMXwA0xbLUHhkjnIYU5z1TyrfOA", "rating": 4.7, "geometry": {"viewport": {"northeast": {"lat": 21.0207499802915, "lng": 105.8371059802915}, "southwest": {"lat": 21.0180520197085, "lng": 105.8344080197085}}, "location": {"lat": 21.019401, "lng": 105.835757}}, "name": "TPBank Branch & ATM Kham Thien", "icon": "https://maps.gstatic.com/mapfiles/place_api/icons/bank_dollar-71.png", "opening_hours": {"weekday_text": [], "open_now": false}, "id": "c285d2440398b45f4dd7d37a1da72481af59778a", "types": ["bank", "atm", "finance", "point_of_interest", "establishment"], "vicinity": "158 Kh\u00e2m Thi\u00ean, \u0110\u1ed1ng \u0110a", "scope": "GOOGLE", "place_id": "ChIJIyv9vISrNTER52heqqGkhaE"}, {"reference": "CmRSAAAAGjT98XthpX9JIGWBRHX5sAWRAnWmOx3-N1EWm1kpX8VMlK3p8ITlxAndkCxT_4O09tZz864D2nfv4t0kOLhHQmEoDhvVUW6VhePskxoN4BbP3VwvqNBwrK1WiS_rMpK5EhCU1yAmEZ2MaDoAJtWyQZrKGhRxNN0cwcSY6Z9nv1eE0E_UUqIFEQ", "rating": 4, "geometry": {"viewport": {"northeast": {"lat": 21.0122858802915, "lng": 105.8508033802915}, "southwest": {"lat": 21.0095879197085, "lng": 105.8481054197085}}, "location": {"lat": 21.0109369, "lng": 105.8494544}}, "name": "ATM Southernbank - Vincom", "icon": "https://maps.gstatic.com/mapfiles/place_api/icons/atm-71.png", "vicinity": "191, Ba Trieu Street, Le Dai Hanh Ward, Hai Ba Trung District, Ha Noi City", "id": "ad1aca92b017558dbba192bceacaa908e293aa29", "types": ["atm", "finance", "point_of_interest", "establishment"], "scope": "GOOGLE", "place_id": "ChIJrfDeuourNTERe5BnzegMQ4c"}, {"reference": "CmRSAAAAc1ctakIMNRIMrJVk7y5q59W8ZDfbowDP-CL6sgJuXDdYWU-04Xx9q6eBr9sv1CiSEH4wbaw_dC2oh0QZOdGnWShWpjS9R2BJCVA-ru0Zl7kO_1eiekBs-RJP-jkEHfxyEhAKq1nKxcEpLf-eilFi5S_oGhSOYElZDRdfQpfFam4zIjt9d9p2Pw", "rating": 5, "geometry": {"viewport": {"northeast": {"lat": 21.0174129802915, "lng": 105.8565239802915}, "southwest": {"lat": 21.0147150197085, "lng": 105.8538260197085}}, "location": {"lat": 21.016064, "lng": 105.855175}}, "name": "TPBank Branch & ATM Le Ngoc Han", "icon": "https://maps.gstatic.com/mapfiles/place_api/icons/bank_dollar-71.png", "opening_hours": {"weekday_text": [], "open_now": false}, "id": "1c32fc587d70fb7615fa9900a4055805e8c8a8a3", "types": ["bank", "atm", "finance", "point_of_interest", "establishment"], "vicinity": "44 L\u00ea Ng\u1ecdc H\u00e2n, Hai B\u00e0 Tr\u01b0ng", "scope": "GOOGLE", "place_id": "ChIJUUfnAfOrNTERztW7tprwLr0"}, {"reference": "CmRRAAAApDfe8dQUe-EaTT1Y4c2YdrhkVKq8dLCpM6bwCIdD2OtVwH9ot2LSWldTtS17C5oSiKM8z6e_mX-6iTPZcMUjcfZdvmffUnmMkct6NwQsGn0930o3qaXNIH0x9fxEuN-kEhCrfUg_mdvjN8lz937dqpNKGhQUefEIXUyWugDsWW2K2Kpcf-Mm8g", "rating": 2, "geometry": {"viewport": {"northeast": {"lat": 21.0313735302915, "lng": 105.8479803302915}, "southwest": {"lat": 21.0286755697085, "lng": 105.8452823697085}}, "location": {"lat": 21.0300601, "lng": 105.8466209}}, "name": "Vietinbank - Atm", "icon": "https://maps.gstatic.com/mapfiles/place_api/icons/atm-71.png", "opening_hours": {"weekday_text": [], "open_now": true}, "id": "9e035eb0aa8fbe554282e507de892da93a78616f", "types": ["atm", "finance", "point_of_interest", "establishment"], "vicinity": "95 H\u00e0ng B\u00f4ng", "scope": "GOOGLE", "place_id": "ChIJJVbeCZarNTERQKN-5FPRrUI"}, {"reference": "CmRRAAAANPXkOe5qqMJjScgMBOP54-HH97N60tQP0M6uLsepc-hjwJ8UU0LUyF3LaVn-eFoN_QJAx3R3czPeD5R3OSdsIlFL3rVFyTjdz7EOOPaTFtzwLtKewcPWyWHqMGzrijYlEhC7M4p5bJUsTJELdzO0-UzxGhTbNphLmONnK8eOcAYjaLOBSH87QA", "rating": 4, "geometry": {"viewport": {"northeast": {"lat": 21.0320121802915, "lng": 105.8479567302915}, "southwest": {"lat": 21.0293142197085, "lng": 105.8452587697085}}, "location": {"lat": 21.0306681, "lng": 105.8465614}}, "name": "Techcombank - Atm", "icon": "https://maps.gstatic.com/mapfiles/place_api/icons/atm-71.png", "vicinity": "17 H\u00e0ng Da, SH\u00e0ng B\u00f4ng", "id": "57bf49be578b66b5b605c386398fcd38f0b7c471", "types": ["atm", "finance", "point_of_interest", "establishment"], "scope": "GOOGLE", "place_id": "ChIJ3_7NAJarNTERjOb6OtMfg3M"}, {"reference": "CmRRAAAAMr_zNzkAowmNlerJsXIMOMzRhcuiRwgvwPW-v_ppQpB4rurrIr5OBCs2JsodYFC8EdNHTYu7PC-UVb-WHv4fhE2yvCfEMz_ph4hDrFlvnaOmIbvBfxjKl6_WDP32DNKBEhCR22ZtsDMrGUrFGP5ldHLRGhQwsnrQG_gzpqKylwP63Mjl-10Olg", "rating": 1, "geometry": {"viewport": {"northeast": {"lat": 21.0326894302915, "lng": 105.8560176302915}, "southwest": {"lat": 21.0299914697085, "lng": 105.8533196697085}}, "location": {"lat": 21.0313468, "lng": 105.8546907}}, "name": "ATM ACB", "icon": "https://maps.gstatic.com/mapfiles/place_api/icons/atm-71.png", "vicinity": "1 Ph\u1ed1 L\u00fd Th\u00e1i T\u1ed5, L\u00fd Th\u00e1i T\u1ed5", "id": "981c89c99cac3efa0433b3f3ff51b300e4f52462", "types": ["atm", "finance", "point_of_interest", "establishment"], "scope": "GOOGLE", "place_id": "ChIJV2g9N8CrNTERivUOEihqr2M"}, {"reference": "CmRSAAAA-BF3tniUUsgDlCO3jXcc6Oa_873TchT0Mq5vcpiDY7O9gd7f_NXn1kB3QkG5yhoo1uvfG6J6D8MbSUqCX5AboGjo843jVOKSjywyW-9dcJmc6IyFQLjuNSwSGEgs3QpnEhCq4MefxXe9GTnNZlAKAKbYGhRxppJ31NF4ODgUS75fPj4HFB2s2Q", "rating": 4.3, "geometry": {"viewport": {"northeast": {"lat": 21.0375837802915, "lng": 105.8469093802915}, "southwest": {"lat": 21.0348858197085, "lng": 105.8442114197085}}, "location": {"lat": 21.0362348, "lng": 105.8455604}}, "name": "ATM Military Bank - Exchange MB Machine 3", "icon": "https://maps.gstatic.com/mapfiles/place_api/icons/atm-71.png", "opening_hours": {"weekday_text": [], "open_now": true}, "id": "ce276fd2e9d5fc240776589227e6fb6069f7dab8", "types": ["atm", "finance", "point_of_interest", "establishment"], "vicinity": "14C, Ph\u1ed1 L\u00fd Nam \u0110\u1ebf, Ph\u01b0\u1eddng H\u00e0ng M\u00e3, Qu\u1eadn Ho\u00e0n Ki\u1ebfm", "scope": "GOOGLE", "place_id": "ChIJEz0JDryrNTER01bZfCc4LJY"}, {"reference": "CmRSAAAA2RaVTR6nq9bnT4agp_uKVahf73s75tM-JGwAnUVjYoihcZ23j0elw31PsIP8MZq0zs3VSWo5M-Zx-TTE-6vpAnoe6TJTg2k89hEFfVfizKpVC-zzLhlIOaDtIkvWYpPKEhCk4Jq2KBe-gNdaq361a5ilGhRcnvQ4eqE3fDOyXca78d5m0m15XA", "rating": 2.6, "geometry": {"viewport": {"northeast": {"lat": 21.0261476802915, "lng": 105.8522105802915}, "southwest": {"lat": 21.0234497197085, "lng": 105.8495126197085}}, "location": {"lat": 21.0247636, "lng": 105.8508525}}, "name": "ATM Military Bank - BTL Bien Phong", "icon": "https://maps.gstatic.com/mapfiles/place_api/icons/atm-71.png", "vicinity": "37 Hai B\u00e0 Tr\u01b0ng, Tr\u00e0ng Ti\u1ec1n", "id": "1cea283dedb87145f92c55f0a87bd23e973e15e4", "types": ["atm", "finance", "point_of_interest", "establishment"], "photos": [{"height": 4608, "photo_reference": "CmRaAAAAsHkSQdBCIpGtjqJmFbKgwrlfLmf5KpGk4ypGy3eeu4GzU0QlsJyiobopXpbFpofYYhAZJ7LzwxqOYn2eS7fKXhcEH8l4U9DFKWShj5t6adyHMvWsQuJVWf6SYTzNrOS9EhCvZUXceq3LoRWen_aQ61HeGhT1-BAPzzeMNn-QpM0KcWjCGW6wXg", "html_attributions": ["<a href=\"https://maps.google.com/maps/contrib/105295299098831815714/photos\">\u0414\u0443\u043a\u0438\u043d \u0412\u0438\u0442\u0430\u043b\u0438\u0439</a>"], "width": 3456}], "scope": "GOOGLE", "place_id": "ChIJEYPRpuyrNTERtyaO2hWMmNw"}, {"reference": "CmRSAAAAILVpa4ItY30P1UcrVhyeVLHKVP8Oyx3Uwgaqr8AjAjvY8sKlmWmVbWtXucownGJI16g5AVb6c8aM-KKgjmz75wZGZlk6aOtR0m7YaHS_KBMFzlu3vpGpSFWl_vJpq0idEhCiOe70SmvTVLG-P2bv25ZZGhRwYKVZYAWIOvyB9P46x6JRHsd0IQ", "vicinity": "52 Ph\u1ed1 L\u00ea \u0110\u1ea1i H\u00e0nh, L\u00ea \u0110\u1ea1i H\u00e0nh", "geometry": {"viewport": {"northeast": {"lat": 21.0132481302915, "lng": 105.8493616302915}, "southwest": {"lat": 21.0105501697085, "lng": 105.8466636697085}}, "location": {"lat": 21.0118834, "lng": 105.8480144}}, "name": "ATM BIDV", "icon": "https://maps.gstatic.com/mapfiles/place_api/icons/atm-71.png", "opening_hours": {"weekday_text": [], "open_now": true}, "id": "6ab72d6ddf3f1e23e6bfb06230c719ab1df60f2e", "types": ["atm", "finance", "point_of_interest", "establishment"], "photos": [{"height": 2988, "photo_reference": "CmRaAAAAm9h19HNtrIbqyQZ3Xn5BB8Pb4XHwgHWSscoRA7_wZuxHbJn9SqMc3zQmXDJQvQcxiZ2PwtOpEvZdF6gHE4uHK07nrmeTfFF7dkJtg12r_ptqQgR2S81ki6MZYaHRWJikEhDdmxpkRCdKatJt9OqSJiWwGhTzpD9bB-41484ZPfey7e-hiXKTJw", "html_attributions": ["<a href=\"https://maps.google.com/maps/contrib/116781685431616769663/photos\">Noi Trinh Khac</a>"], "width": 5312}], "scope": "GOOGLE", "place_id": "ChIJEepdwIurNTERqQlDQ25KKYY"}, {"reference": "CmRSAAAA0DAfhs_xUJTbt7lNZ8aDLgy5zIOR-OqoemAf1O_OW13uDPHbN8zUzX8d3mvwzZcXK9vnqLg2t-3XzP0ALjruUwO8b6UnYHGaSCLvV0C3K1z2KcH-HKFAtZls9hStoZxZEhDv5wNlVqijM-buNH8S3LfcGhRQiXsW7UziVzVw_L1M4t2OUzkphg", "rating": 3.9, "geometry": {"viewport": {"northeast": {"lat": 21.0252098802915, "lng": 105.8478553802915}, "southwest": {"lat": 21.0225119197085, "lng": 105.8451574197085}}, "location": {"lat": 21.0238609, "lng": 105.8465064}}, "name": "ATM VPBank - VPBank H\u00e0 N\u1ed9i", "icon": "https://maps.gstatic.com/mapfiles/place_api/icons/atm-71.png", "opening_hours": {"weekday_text": [], "open_now": true}, "id": "fd69c15dbbe6f495eae134e636642b279b8ac3b6", "types": ["atm", "finance", "point_of_interest", "establishment"], "vicinity": "S\u1ed1 4, Ph\u1ed1 D\u00e3 T\u01b0\u1ee3ng, Ph\u01b0\u1eddng Tr\u1ea7n H\u01b0ng \u0110\u1ea1o, Qu\u1eadn Ho\u00e0n Ki\u1ebfm", "scope": "GOOGLE", "place_id": "ChIJ7f_HX5GrNTER1GvqgqHk66k"}, {"reference": "CmRRAAAAR3MnE08YLsfXNpaNhnnGmJ3k1i4tBUCrsjzenu1SfMAQ65sUHfI-nRgl09C0ksQqsyLEjKauR6qpRUTgQ4kAQ9MShVVDNjWAxYL9yjhwCQKvyoJlNHS-sHlocu605UuCEhAfhz-iOZs3JWWxvOIf6BH_GhTc_ztbt5kh3ar01_s60cXgb-36Iw", "rating": 5, "geometry": {"viewport": {"northeast": {"lat": 21.0320414802915, "lng": 105.8564056802915}, "southwest": {"lat": 21.0293435197085, "lng": 105.8537077197085}}, "location": {"lat": 21.0306925, "lng": 105.8550567}}, "name": "ATM VPBank - Kh\u00e1ch S\u1ea1n \u0110i\u1ec7n L\u1ef1c", "icon": "https://maps.gstatic.com/mapfiles/place_api/icons/atm-71.png", "opening_hours": {"weekday_text": [], "open_now": true}, "id": "57d2f3dc06f80992a2d38c26ebcc22274cfd142c", "types": ["atm", "finance", "point_of_interest", "establishment"], "vicinity": "S\u1ed1 30, Ph\u1ed1 L\u00fd Th\u00e1i T\u1ed5, Ph\u01b0\u1eddng L\u00fd Th\u00e1i T\u1ed5, Qu\u1eadn Ho\u00e0n Ki\u1ebfm", "scope": "GOOGLE", "place_id": "ChIJuWubLsCrNTERJkRckXtDfxs"}, {"reference": "CmRRAAAA5sAkmhHKjUg8IBmND4Fe-UkOuDchpTOGauvD8Hhoz_FQSfCrRtfUfz1MttDicsoLCLaDCev3CqueOU-7qP6O3hH7JnimV6BsMzt5WdKdP0UcdmclRoDq8weHlA-gry0YEhCVE-cskzWkzUrWZbh73JSeGhSWIVoMxV1pB4OatQeHBnSvKFZOng", "geometry": {"viewport": {"northeast": {"lat": 21.03253698029151, "lng": 105.8524373802915}, "southwest": {"lat": 21.0298390197085, "lng": 105.8497394197085}}, "location": {"lat": 21.031188, "lng": 105.8510884}}, "name": "ATM Vpbank - Ho Guom Vpbank", "icon": "https://maps.gstatic.com/mapfiles/place_api/icons/atm-71.png", "vicinity": "S\u1ed1 8, Ph\u1ed1 L\u00ea Th\u00e1i T\u1ed5, Ph\u01b0\u1eddng H\u00e0ng Tr\u1ed1ng, Qu\u1eadn Ho\u00e0n Ki\u1ebfm", "id": "2df410f830b904a55da451831c7a012801b6df76", "types": ["atm", "finance", "point_of_interest", "establishment"], "photos": [{"height": 2448, "photo_reference": "CmRaAAAAeQYkYTVlpaBxmnGX8wtaVehIVc9gCiNY3dt1czW1gc-EDN_YcskMkWS4n4es_9YMIXsF5SAz5bvSTClsr6Tch1Zbpclq7LYtZJstph38LJlfnPhjqSSER2ERU4Ug9hU-EhDQHBSJu1Hf9Ms_rKOCVZfgGhQHWsFNH91UwzNyeLE0sZloTRWJiQ", "html_attributions": ["<a href=\"https://maps.google.com/maps/contrib/116046118136573607050/photos\">Lam Trinh Khac</a>"], "width": 3264}], "scope": "GOOGLE", "place_id": "ChIJYQyO57-rNTERJe6jvkXvfmY"}, {"reference": "CmRSAAAAxBqpkBvCFedbugfDohwJ6wW01Yqy4j63_XpS2BY60toSvBtfwhlsXmty843pA4nwNRi_1M791RLkpg1RjP5wEDhefysRpgW_gNjZkNzZqngSNW1sscSjcHO9yvxRhqw8EhANTH8EXu8p1slT10ZN6xdPGhSEHAmhMd6cR_D8eafYvnuxkklR7A", "rating": 3.5, "geometry": {"viewport": {"northeast": {"lat": 21.0232338802915, "lng": 105.8442690802915}, "southwest": {"lat": 21.0205359197085, "lng": 105.8415711197085}}, "location": {"lat": 21.0218849, "lng": 105.8429201}}, "name": "ATM TienPhong Bank - Ph\u00f2ng Giao D\u1ecbch Y\u1ebft Ki\u00eau", "icon": "https://maps.gstatic.com/mapfiles/place_api/icons/atm-71.png", "opening_hours": {"weekday_text": [], "open_now": true}, "id": "1748b82d58437e600b02e6a21582c49ce784ecb5", "types": ["atm", "finance", "point_of_interest", "establishment"], "vicinity": "4, Ph\u1ed1 Y\u1ebft Ki\u00eau, Ph\u01b0\u1eddng C\u1eeda Nam, Qu\u1eadn Ho\u00e0n Ki\u1ebfm", "scope": "GOOGLE", "place_id": "ChIJXRBFRZCrNTER4-ehUW6v7_A"}, {"reference": "CmRRAAAAjklDn8QyUWfJA-kZFyhT6A6TfmTdqR3wODmX8uwoVD2etj2snHPX47OhcTaer4nEzzF_WS01T2qfG37D6jabHYD1n_TOI45lXkIN4ugW3--jhjfDhYaGAxTYtWrGvQEpEhDDcOWlbCMunrycAluZ-ec0GhR_8WiBHzyqABMAG3GQmJZxRtl94w", "rating": 4, "geometry": {"viewport": {"northeast": {"lat": 21.0172404802915, "lng": 105.8563507802915}, "southwest": {"lat": 21.0145425197085, "lng": 105.8536528197085}}, "location": {"lat": 21.0158915, "lng": 105.8550018}}, "name": "ATM TienPhong Bank - Le Ngoc Han Transaction", "icon": "https://maps.gstatic.com/mapfiles/place_api/icons/atm-71.png", "vicinity": "44, Ph\u1ed1 L\u00ea Ng\u1ecdc H\u00e2n, Ph\u01b0\u1eddng Ph\u1ea1m \u0110\u00ecnh H\u1ed5, Qu\u1eadn Hai B\u00e0 Tr\u01b0ng", "id": "1d0ecd8d19c34e074f7375e96462131bc2e3a042", "types": ["atm", "finance", "point_of_interest", "establishment"], "photos": [{"height": 1200, "photo_reference": "CmRaAAAAsQwkJ1THSPkZvLQXeWU1AmjwDde8IEucW7o_ws2WIsZevYBQa3BGwVMoC5yLiaoqfJ1cavBSYBz4ZACYsGAAXSKgt0mzL8G0Qjc16_CNZLQpC7GywkhBh3gMFt8__JrFEhCR9VS7q_Maiu8f7iKEVWz7GhRgUqXOn394WMCJEJ35ABHJH-m3TQ", "html_attributions": ["<a href=\"https://maps.google.com/maps/contrib/101053797134622928934/photos\">\u0110\u0103ng Khoa N\u1ed9i Th\u1ea5t V\u0103n Ph\u00f2ng</a>"], "width": 1800}], "scope": "GOOGLE", "place_id": "ChIJ5frK_fKrNTERf-iccE3mDUE"}]