[{"place_id": "ChIJKbeEP5mrNTERmfwqD8_CuIw", "types": ["bank", "finance", "point_of_interest", "establishment"], "scope": "GOOGLE", "geometry": {"location": {"lat": 21.0277367, "lng": 105.8360928}, "viewport": {"southwest": {"lat": 21.0264052697085, "lng": 105.8346994697085}, "northeast": {"lat": 21.0291032302915, "lng": 105.8373974302915}}}, "id": "55352c6838e7501b991a08527bcec3dfca418732", "reference": "CmRSAAAAP1GFv8YGUYfA7MW3QejEp4OfFKN71cjOAIka0Ejiaw53FsnfMrXAI5VRFdaSYI5-kB0irC3Y2uNJQAEBxgTCVKcEurv1Bst8s6ohHxlbpTHnTdzqXdInEfswALwpLvoMEhAYHSH6935CAw6jsaPn4oZMGhQNJmzYVlvq_PFncI_1ZG2_Ak2Org", "opening_hours": {"open_now": false, "weekday_text": []}, "vicinity": "S\u1ed1 55 - 57, V\u0103n Mi\u1ebfu", "icon": "https://maps.gstatic.com/mapfiles/place_api/icons/bank_dollar-71.png", "name": "Orient Commercial Bank - Ha Noi Branch."}, {"place_id": "ChIJfzZ4bpWrNTERywMNLH237ts", "types": ["bank", "finance", "point_of_interest", "establishment"], "photos": [{"height": 4608, "photo_reference": "CmRZAAAAFOJkOfXbQJwLt1jMad95sdQBw88YW2lHiAC9XLA_9RrjCCNdTW3IJVVS3EzW_zH_M-fOmu1rwBedFo7Aq8CoUs0UcmouciF4U8uZwgWtY2gxOJ6gaw38ENSnql1EQDHIEhAeSq8WO7MJoCjzOh9eLdHUGhR0zkvuswasLxDgAHkSBO2JXuwg0Q", "width": 3456, "html_attributions": ["<a href=\"https://maps.google.com/maps/contrib/111858267326943893998/photos\">Dat Nguyen Van</a>"]}], "scope": "GOOGLE", "geometry": {"location": {"lat": 21.0295621, "lng": 105.8504562}, "viewport": {"southwest": {"lat": 21.0281942697085, "lng": 105.8490714697085}, "northeast": {"lat": 21.0308922302915, "lng": 105.8517694302915}}}, "id": "f7aa0eaf34d2676c27720a32313ffb75d188e7b4", "reference": "CmRSAAAAMbFp76v8hts_MMq8THI8riiLs6L--AKQUlb2EJBG0CtqGW1l7VmiNVcH7SFCCvWjTpq8ZhAZfsO-d4E4-H4gqKeVCCH96SCg9Rc5Fp06znuXex4kZHnx09UWQ9dJS78xEhBQkeQroNBmrATZFJdZrROBGhRrPOrwHnR9qvnLoUpTWzWmu2oUSQ", "rating": 3.3, "vicinity": "71 H\u00e0ng Tr\u1ed1ng", "icon": "https://maps.gstatic.com/mapfiles/place_api/icons/bank_dollar-71.png", "name": "SHB BANK"}, {"place_id": "ChIJZw3VVoyrNTERFLSOitUtmh8", "types": ["bank", "finance", "point_of_interest", "establishment"], "scope": "GOOGLE", "geometry": {"location": {"lat": 21.0157317, "lng": 105.8492213}, "viewport": {"southwest": {"lat": 21.0143820197085, "lng": 105.8479103197085}, "northeast": {"lat": 21.0170799802915, "lng": 105.8506082802915}}}, "id": "4ae3a57b2fe719be9c8055e6b634d6d188ed32cf", "reference": "CmRRAAAABcI65LA-B5psvetIcIWN7M-oVQMlzxLM87ZRexEA3hnbVSk0kOTciuK01o0dUUpLmOiKPeQbYlSm8Jt2-kPJop9KEC85jh08Cxdmmgi3f7bBSIZ916JfB5pTkLXPkrjAEhC1O0BvEB4tHfzrufdSUq8gGhQtzmS_MoLoQTa9GowwAgQ3_R__Uw", "rating": 4, "vicinity": "125 B\u00e0 Tri\u1ec7u, Nguy\u1ec5n Du", "icon": "https://maps.gstatic.com/mapfiles/place_api/icons/bank_dollar-71.png", "name": "Ng\u00e2n h\u00e0ng B\u1ea3n Vi\u1ec7t - CN H\u00e0 N\u1ed9i"}, {"place_id": "ChIJY7E6--yrNTERYbJfPe9rsuE", "types": ["bank", "finance", "point_of_interest", "establishment"], "photos": [{"height": 1836, "photo_reference": "CmRaAAAASf7Ms4C7tY8GhWzS4Ns0BcYJPBhCdfnNBIrgC6s5rQmR5ZvbPnN16exjgZhiutXC2MVciQ9WGgeMKClzYqTNwyq_TMVWZ9Z5gi_tQK8D3RWFQ4i6On5NaIsgThmubBH6EhA46grgzIye3QiiS__eqosVGhQGppawFSRhm1bTJ9OKFN9jbGBPjQ", "width": 3264, "html_attributions": ["<a href=\"https://maps.google.com/maps/contrib/114778904432111406670/photos\">Viet Long Nguyen</a>"]}], "scope": "GOOGLE", "geometry": {"location": {"lat": 21.0218503, "lng": 105.8549522}, "viewport": {"southwest": {"lat": 21.0205830697085, "lng": 105.8536306197085}, "northeast": {"lat": 21.0232810302915, "lng": 105.8563285802915}}}, "id": "d6b6e73d8545002178e95d53650da3dd96068e10", "reference": "CmRSAAAA63rpxZm0d7aHJ752Lw2IBUdwFB4v4ZETDSa8L0MN26W2hxwCIXbFGqpGkSCxPz98czaHNCVL33wwMFLCkvs27G0GwGmPi1ES9DoIfTBxCf0YW3QhupF-ZRgyJiuga4kVEhCXj3rVoefSdAhWhpAutMrCGhQA3t3apmqD4ULQiqvoouBfEqPdjQ", "rating": 4.5, "vicinity": "25 L\u00fd Th\u01b0\u1eddng Ki\u1ec7t, Phan Chu Trinh", "icon": "https://maps.gstatic.com/mapfiles/place_api/icons/bank_dollar-71.png", "name": "State Bank of Vietnam"}, {"place_id": "ChIJSzDqcOurNTERwKw1tItzp6E", "types": ["bank", "finance", "point_of_interest", "establishment"], "scope": "GOOGLE", "geometry": {"location": {"lat": 21.0252476, "lng": 105.8549833}, "viewport": {"southwest": {"lat": 21.0238986197085, "lng": 105.8536343197085}, "northeast": {"lat": 21.0265965802915, "lng": 105.8563322802915}}}, "id": "432b5d8f14df53b22bfc5daad3edfb3e5beff7fb", "reference": "CmRSAAAAVUZDkDxdj_-FLwOh7s5OvQffSdOWh-nQjA5x9kohxROg_xfn9_njd6UkEf84yBJUoV5WaQ4FAlgdj7BMckaYXLt1935fWLYAO6i5B7RFNmaMhaD-jHPFzmUO_AGXnv7qEhC5nLWfya9ByHuN1NIO0_8NGhSJ1Y2V6gUTq05YK29OgJzYvYGS3A", "rating": 4, "vicinity": "Ph\u00f2ng 3, T\u1ea7ng 3, Trung T\u00e2m Qu\u1ed1c T\u1ebf, 17, Ng\u00f4 Quy\u1ec1n, Qu\u1eadn Ho\u00e0n Ki\u1ebfm", "icon": "https://maps.gstatic.com/mapfiles/place_api/icons/bank_dollar-71.png", "name": "Ng\u00e2n h\u00e0ng Bangkok Bank"}, {"place_id": "ChIJB2oaY-yrNTEReHbOanFwVu8", "types": ["bank", "finance", "point_of_interest", "establishment"], "scope": "GOOGLE", "geometry": {"location": {"lat": 21.023503, "lng": 105.855675}, "viewport": {"southwest": {"lat": 21.0221540197085, "lng": 105.8543260197085}, "northeast": {"lat": 21.0248519802915, "lng": 105.8570239802915}}}, "id": "6a3352365160170739fc840e3cc022941db9763e", "reference": "CmRSAAAAUHK-52-Zi5KzWB0d-oFJTLBnyAXaGA2Zz-eqJupLE4f_Uk87ECip04wmvBsl_vqkEO3xgDYSlhi3hcurTbihJfU6c6P5uqkTpKoydAQCaWuJXF4j4bT33XHIpl_FAjpREhAbE3h3fclERPZBaUUxASiqGhQH8Fb2Hq7tTIWUTqkd9NeOiLxxhg", "rating": 4, "vicinity": "13 Hai Ba Trung Street, Hoan Kiem District, Ha Noi City", "icon": "https://maps.gstatic.com/mapfiles/place_api/icons/bank_dollar-71.png", "name": "The Main Headquarters Of ANZ Banking"}, {"place_id": "ChIJld-NzZCrNTERhAvpt_KNGVg", "types": ["bank", "insurance_agency", "finance", "point_of_interest", "establishment"], "scope": "GOOGLE", "geometry": {"location": {"lat": 21.0253095, "lng": 105.8429343}, "viewport": {"southwest": {"lat": 21.0239605197085, "lng": 105.8415853197085}, "northeast": {"lat": 21.0266584802915, "lng": 105.8442832802915}}}, "id": "eaac196261faec581d5f50957f3c0a1736a88386", "reference": "CmRRAAAAP2xUML5G8OFifWD7OHLhAX-z_QwhS_PgBZjNonj-8OqnszMDJK5nIOqiw5W3Kb16pIBzXj6tT7bn-6Ea-ijM7jDIcOS1Am5sjfyLPt91YjgbfK5cPN7GFMR6mzWX0M4MEhA6g12xWAuDyt2wzYRYUnOlGhRajsARJyVvVVpCcVGKU74WknPTcA", "vicinity": "83, Ph\u1ed1 L\u00fd Th\u01b0\u1eddng Ki\u1ec7t, Ph\u01b0\u1eddng C\u1eeda Nam, Qu\u1eadn Ho\u00e0n Ki\u1ebfm", "icon": "https://maps.gstatic.com/mapfiles/place_api/icons/bank_dollar-71.png", "name": "The Bank Of Tokyo Mitsubishi Bank"}, {"opening_hours": {"open_now": false, "weekday_text": []}, "rating": 4.4, "vicinity": "33 Ph\u1ed1 Hu\u1ebf, Ph\u01b0\u1eddng H\u00e0ng B\u00e0i, Qu\u1eadn Ho\u00e0n Ki\u1ebfm", "icon": "https://maps.gstatic.com/mapfiles/place_api/icons/bank_dollar-71.png", "scope": "GOOGLE", "id": "1353c40db4a746572b92b7876c254ebc13d373fe", "photos": [{"height": 700, "photo_reference": "CmRaAAAAFLmTU30dD1VD5UO8wyAoNf5k75QnOQPE9RvddKbuPYs6HykIk7GKy9sX0MKNzza8XCopJ3NGrYrAacWkYoZtLrHPNziLDJ1lBV4zaGG-pt7ki_ZHdqoV9keKkACKbK0uEhBpxbK8-ZWM6Qn8mSH7DEx3GhRUXMx8lTu55GoTttd6YCxJY4-NDw", "width": 700, "html_attributions": ["<a href=\"https://maps.google.com/maps/contrib/106674608069384455444/photos\">Ng\u00e2n h\u00e0ng Qu\u1ed1c T\u1ebf - VIB Ho\u00e0n Ki\u1ebfm</a>"]}], "geometry": {"location": {"lat": 21.0185792, "lng": 105.8518875}, "viewport": {"southwest": {"lat": 21.01723021970849, "lng": 105.8505385197085}, "northeast": {"lat": 21.0199281802915, "lng": 105.8532364802915}}}, "place_id": "ChIJYQLWypOrNTERtv99uW7ctAE", "reference": "CmRRAAAAwqdxxeoD0m_XoLU7wPWUbPkdXLVz1w4BB_b-TM3G4zycprGjKs5R2NK78Ex_9UlMpzobQByo3g-JbO9NuZ9yU1K3BqzLKSm7ukSq8uBv_MLKPEnzG8KyOZE-TCDqvB8tEhDBYGCmKJwz-vv-GrsLRpuYGhToFfoU-prkIo3loGM5bdlwz3xP4w", "types": ["bank", "atm", "finance", "point_of_interest", "establishment"], "name": "International Bank - VIB Hoan Kiem"}, {"place_id": "ChIJkxIFz5mrNTERcMWk9M9pO8o", "types": ["bank", "finance", "point_of_interest", "establishment"], "scope": "GOOGLE", "geometry": {"location": {"lat": 21.0281702, "lng": 105.8398172}, "viewport": {"southwest": {"lat": 21.02682121970849, "lng": 105.8384682197085}, "northeast": {"lat": 21.0295191802915, "lng": 105.8411661802915}}}, "id": "09f55f52cd96e2c11921d7e06b4d8764d56b9448", "reference": "CmRSAAAA5YEMTWyqgYMi8Ka-oRzZDKDOsKe9n0I0KrA2OXBBvrmIER9Myij4X7jIlcYxDNGHi0Tk_l-RpoG2kIkTQMA7B2UfeTaY9Mvq5lN5--vzf08kpudsriUItrikh0WiCNViEhBRcf-skaY-Jpb7APwG5bppGhQg_22jos95ccloEBqSnmqRlvCnZg", "rating": 4, "vicinity": "68, Ph\u1ed1 Nguy\u1ec5n Khuy\u1ebfn, Qu\u1eadn \u0110\u1ed1ng \u0110a, Tp H\u00e0 N\u1ed9i", "icon": "https://maps.gstatic.com/mapfiles/place_api/icons/bank_dollar-71.png", "name": "Ng\u00e2n H\u00e0ng Nam \u00c1 - Nam A Bank @ Ph\u00f2ng Giao D\u1ecbch \u0110\u00f4ng \u0110\u00f4"}, {"place_id": "ChIJ5_g6ZIyrNTERNVCfQpZ65Tc", "types": ["bank", "finance", "point_of_interest", "establishment"], "scope": "GOOGLE", "geometry": {"location": {"lat": 21.014415, "lng": 105.8490846}, "viewport": {"southwest": {"lat": 21.0130660197085, "lng": 105.8477356197085}, "northeast": {"lat": 21.0157639802915, "lng": 105.8504335802915}}}, "id": "38f1ee03aa880646fc08207d96bc7a230cbae9a9", "rating": 4, "reference": "CmRRAAAAIlr66cm62WHBFYZRqklrc2TRUC4AwvUSL3O4oTYUAOB38pxJhQU12xOdfmicY7xnhbuTgr9e5EKjEr0QnHitSZPGZelLrik-0m48ayg0wK4qoLULiJA_JARnLp6AfYmhEhBHXHS5U1MBNfyoRiWLtojKGhQI9hwj8VcY1RdvxstCSWXsQYDECQ", "opening_hours": {"open_now": true, "weekday_text": []}, "vicinity": "165, Ba Trieu Street, Hai Ba Trung District, Ha Noi City", "icon": "https://maps.gstatic.com/mapfiles/place_api/icons/bank_dollar-71.png", "name": "Maritime Bank@ Pho Hue Branch"}, {"place_id": "ChIJCyVkzYyrNTER0wV9tHSjsHs", "types": ["bank", "finance", "point_of_interest", "establishment"], "photos": [{"height": 4160, "photo_reference": "CmRaAAAAryzrse7opdMH-eGBbEqCTvrFy_X3U-R3Y3AmGckFZEzdVRLO0zORplqhAJ9YBHzYko4TqieXJFyOT37e4_Qbj87XfZ9e9f_EaPQTMK5tAZJoQQVFwOtAPSJ10xX_YlKFEhCX-NBhHWqVdVFLJXXyBsc9GhSACz2JtX-81WUuInzyD6uvr_zd2w", "width": 2340, "html_attributions": ["<a href=\"https://maps.google.com/maps/contrib/112279365214788820888/photos\">Nguyen Hai Hung</a>"]}], "scope": "GOOGLE", "geometry": {"location": {"lat": 21.0151511, "lng": 105.8523784}, "viewport": {"southwest": {"lat": 21.0138375197085, "lng": 105.8510427697085}, "northeast": {"lat": 21.0165354802915, "lng": 105.8537407302915}}}, "id": "692847f864a86405037dcd9d6b72813cb636d437", "reference": "CmRRAAAAbDML9FDl1cg1KDD8vaaofYBX7HXIZzIAStGe9PMQgTVemj0JRe2EB1ruA8Ta0qsZylVEdmL19Sdm0ThJ7gTKFAJhelwK6RkDhrlwfvd520fjUePXrtBm3S8PUxj-Vyw2EhCxGyWlAGnbD2Cg4RlEHjk-GhS0Md1FUKGdNib9vjV1c71WBi2eCg", "vicinity": "35 H\u00f2a M\u00e3, Ng\u00f4 Th\u00ec Nh\u1eadm", "icon": "https://maps.gstatic.com/mapfiles/place_api/icons/bank_dollar-71.png", "name": "Vietin Bank"}, {"opening_hours": {"open_now": false, "weekday_text": []}, "rating": 4.2, "vicinity": "S\u1ed1 31-33, Ph\u1ed1 Ng\u00f4 Quy\u1ec1n", "icon": "https://maps.gstatic.com/mapfiles/place_api/icons/bank_dollar-71.png", "scope": "GOOGLE", "id": "5e9dfcd15b81a276bc07be1a8c2e532cbdd25a10", "photos": [{"height": 4000, "photo_reference": "CmRaAAAAzd0Yh_zdA1lsrMWUbiqj-xzLu0_2ANCTIqKDiryHJdQ7kle_hE93Ar-KV0I9Szf67FbLbCV7XNxAqH9oYzeZpxnb7jOB3zEtsPuByMhny9eqCPV6t9Y8s6RX10XW-oSjEhAyTlnb6ptZDlThE4e7IY4WGhTViYdgYtfE5nZyhkx4imiJBrB6Tw", "width": 3000, "html_attributions": ["<a href=\"https://maps.google.com/maps/contrib/111397698387401448693/photos\">\u0110\u00e0o Vi\u1ec7t D\u0169ng</a>"]}], "geometry": {"location": {"lat": 21.0231584, "lng": 105.8546803}, "viewport": {"southwest": {"lat": 21.02182386970849, "lng": 105.8532926697085}, "northeast": {"lat": 21.0245218302915, "lng": 105.8559906302915}}}, "place_id": "ChIJmwhAjeyrNTERiOhmLonuxIk", "reference": "CmRSAAAAVyNW7dIpR-OHTLDbxP94lPooqf7p-wEX0vIVkT1qXYVQcwUgvSGi2vilO3EU3qmOrq54d9OEzyXArDJa8Ih1tGTcrzWmuFlTEZHXPR3nTwzpFZ1iPMRbP5VEncHRBYcSEhDlIljYGotdoRXX15JuZEqRGhS25Y0NjbEVyENharxzOxHFp6xs5g", "types": ["bank", "finance", "point_of_interest", "establishment"], "name": "Joint Stock Commercial Bank for Foreign Trade of Viet Nam"}, {"place_id": "ChIJ13JGHI2rNTERtK1-YbJ-Jm0", "types": ["bank", "finance", "point_of_interest", "establishment"], "scope": "GOOGLE", "geometry": {"location": {"lat": 21.0163691, "lng": 105.8505732}, "viewport": {"southwest": {"lat": 21.0150201197085, "lng": 105.8492242197085}, "northeast": {"lat": 21.0177180802915, "lng": 105.8519221802915}}}, "id": "6a481348d7c3143b1b4858679e2351a7a010ee02", "rating": 4, "reference": "CmRRAAAAdhHSCR4J00i3w2kDztEL_JyIpGiC44G-M5KKPRfX99pbwwQC_cyPd916oeZSAcDat1s_UgYhvCo_P-TBXpsXtT_pGB_ZShPwZoCV69PHq5UXdqOsPCxD3ZNjO9buh0wpEhBUeF-BV8FweKhwWKNHpHVZGhTeaLwGYB74sKbm-QpSsRCjPXNz4Q", "opening_hours": {"open_now": false, "weekday_text": []}, "vicinity": "45, Ph\u1ed1 Tri\u1ec7u Vi\u1ec7t V\u01b0\u01a1ng, Q Hai B\u00e0 Tr\u01b0ng, Tp H\u00e0 N\u1ed9i", "icon": "https://maps.gstatic.com/mapfiles/place_api/icons/bank_dollar-71.png", "name": "Lien Viet Bank"}, {"place_id": "ChIJZXIwqu2rNTERNh74xnWnVGY", "types": ["bank", "finance", "point_of_interest", "establishment"], "photos": [{"height": 3024, "photo_reference": "CmRaAAAAx2_F8A32asCNMkdznxT6i9T0VeiyFWMTx6Pu4NkEmLKqTEaSSte-7hNGjwAwQANRWLDSFoHbB5amOexCKgso3CcZhQGA8PEUuRqgQo9PPr6DzgHoPsBE3dYo1o7IQ7DUEhAygxyB64Dcl8uWjbeyABy8GhSfgzJGjXdfVOjeKVrVqQfvB5hibQ", "width": 4032, "html_attributions": ["<a href=\"https://maps.google.com/maps/contrib/109246699757007605546/photos\">Dau Quoc Toan</a>"]}], "scope": "GOOGLE", "geometry": {"location": {"lat": 21.0211477, "lng": 105.8555916}, "viewport": {"southwest": {"lat": 21.0197455197085, "lng": 105.8544218197085}, "northeast": {"lat": 21.0224434802915, "lng": 105.8571197802915}}}, "id": "032a2494711c8f34c351836486ae2e8c6d209a31", "reference": "CmRRAAAAgldS4qUvUG9nMjPNwtz_obCYsWggr1jdgihmdK_G5BjATAbqpXNA_PkLybczylvbnaWc_mM3WYxm0XeJAlNIPZDNMiI-1_V3QIv76fDKtMHRt-oPGcIialyk2CWf4FA5EhAa0KtW69YzXDw9xW3gcOoRGhSXRF4tkpSCII0AR2BWKsMBqS5rlg", "rating": 3.8, "vicinity": "16 Phan Chu Trinh", "icon": "https://maps.gstatic.com/mapfiles/place_api/icons/bank_dollar-71.png", "name": "CIMB Bank"}, {"opening_hours": {"open_now": false, "weekday_text": []}, "rating": 4.1, "vicinity": "198 Tr\u1ea7n Quang Kh\u1ea3i, L\u00fd Th\u00e1i T\u1ed5", "icon": "https://maps.gstatic.com/mapfiles/place_api/icons/bank_dollar-71.png", "scope": "GOOGLE", "id": "be8061c77006237ece7fdb6456ff57164634d8e9", "photos": [{"height": 600, "photo_reference": "CmRaAAAAKTxaI9ujOysuARe68S-P-tfFTgvjfWrBdAPd2F1RwKOIrRJKV2Ih5KuD7ByrY0yqRA8e5UT87tcDGDSnggr2dXpBtorZ7L7Gp3FqM_AGJU_Z2gavtxnUZFtEq4wPZ27mEhB1WYe-ZASpr-Ux-mUFGwHFGhS7UeggKW5B1NRmQwHvtUP8pJinxw", "width": 800, "html_attributions": ["<a href=\"https://maps.google.com/maps/contrib/104710112911979909479/photos\">Qu\u00e2n H\u1ed3 V\u01b0\u01a1ng</a>"]}], "geometry": {"location": {"lat": 21.028105, "lng": 105.8578916}, "viewport": {"southwest": {"lat": 21.02678646970849, "lng": 105.8566194197085}, "northeast": {"lat": 21.0294844302915, "lng": 105.8593173802915}}}, "place_id": "ChIJHRKxJOqrNTER18ugbJ4ybDs", "reference": "CmRRAAAACbUHe4Pu19Ii-KxxzKxMllwYzn4ILxyAzv4CyNUFKtfKqsK3u8hlfpLa6v41oKbNimRYfR3K8nFVxrAxi85Kau1Jrts_14ZBgi9SASXbmy_W1v-YxjZ32Q_Ea16254cEEhDXg1sfVrX0ezPR64DggiKSGhSzppbzP6-ffQDb8C_REkxsgBG0mg", "types": ["bank", "finance", "point_of_interest", "establishment"], "name": "Joint Stock Commercial Bank For Foreign Trade Of Vietnam"}, {"place_id": "ChIJJ-h5wb-rNTERFfKj3hnO-8A", "types": ["bank", "finance", "point_of_interest", "establishment"], "scope": "GOOGLE", "geometry": {"location": {"lat": 21.0317301, "lng": 105.8508467}, "viewport": {"southwest": {"lat": 21.0303811197085, "lng": 105.8494977197085}, "northeast": {"lat": 21.0330790802915, "lng": 105.8521956802915}}}, "id": "d1d29d1fce41bf614429bf0da903455830c3b0f8", "rating": 4, "reference": "CmRSAAAAfMx0rUUn45845jjw6XAAlvwB5nvtThv9K8tR2DWvWIzcIvo5ucc3W4gNFOF3olZCGHoHLCA7YcdCUYHiw6Riub9w5Z0tcfAbJIssIYcEY31A9Fq8r-4uJcq4dN8gJg1qEhBiTRF0cYDyr1UoWTQAyBrzGhRcv66q_Fvf8r6i7TFcYQFUO5h9Og", "opening_hours": {"open_now": true, "weekday_text": []}, "vicinity": "8 Ng\u00f5 H\u00e0ng H\u00e0nh, H\u00e0ng Tr\u1ed1ng", "icon": "https://maps.gstatic.com/mapfiles/place_api/icons/bank_dollar-71.png", "name": "Ng\u00e2n H\u00e0ng Tmcp S\u00e0i G\u00f2n - H\u00e0 N\u1ed9i ( Shb Bank)"}, {"place_id": "ChIJX-fZTeyrNTERpkNqO3zaVPU", "types": ["bank", "finance", "point_of_interest", "establishment"], "scope": "GOOGLE", "geometry": {"location": {"lat": 21.0209715, "lng": 105.8561658}, "viewport": {"southwest": {"lat": 21.01962251970849, "lng": 105.8548168197085}, "northeast": {"lat": 21.0223204802915, "lng": 105.8575147802915}}}, "id": "2f28cab4871d65eed900a99a66f84f94803cc197", "reference": "CmRSAAAAsKlmwd5z_5PB11jXvJK6U3tBfsdWxaGarOGXUbqLXicyNeb5GaY2-EcKVIyI43L4m4Zu1f5Z7Q5OStsvZtXol0iqtIcnLrAP5mu0_ddJ474xNHEpS4Sr7u-AxwBQmvz7EhAMnPa2g-IKsRjMlV5GrpixGhTY3ZBUqRN3S_qFHx6nBGlk0yDs_g", "vicinity": "10 L\u00fd Th\u01b0\u1eddng Ki\u1ec7t Phan Chu Trinh Ho\u00e0n Ki\u1ebfm Phan Chu Trinh Ho\u00e0n Ki\u1ebfm H\u00e0 N\u1ed9i", "icon": "https://maps.gstatic.com/mapfiles/place_api/icons/bank_dollar-71.png", "name": "Asian Development Bank"}, {"place_id": "ChIJk1VBi-urNTERTOjEvwzBpqk", "types": ["bank", "finance", "point_of_interest", "establishment"], "photos": [{"height": 3120, "photo_reference": "CmRaAAAASEXw1MTy9wUMMRbVtaRzETiIDpZkagaanjDmCiPhPrRs3bVFKjRcJFEmRpp9xf_jXwZYhrE8yQabBpa4wI5mxwLjTMDnFMODg7anwC8Du1nLKJ8c5QaYVZYU2vPTrV6lEhBmkLf4vgyArro0wMn9Ea22GhQfKrTm8GXahrBLnxHbCHtB3OUXRg", "width": 4160, "html_attributions": ["<a href=\"https://maps.google.com/maps/contrib/107688885189997181207/photos\">V\u0103n Th\u00e0nh \u0110inh</a>"]}], "scope": "GOOGLE", "geometry": {"location": {"lat": 21.0246753, "lng": 105.8567171}, "viewport": {"southwest": {"lat": 21.0233263197085, "lng": 105.8553681197085}, "northeast": {"lat": 21.02602428029151, "lng": 105.8580660802915}}}, "id": "e631b8583032a79163e9fc9e70acc27cddb6423f", "reference": "CmRSAAAAwbScGWweMmLFKCScMcDVPKlg2GZCbBUg8-NVWfPyG0PFBEOuerH1B48gZWtgO6xr3LWBRhhRxiVcE4MbI7rIJTTh_XtR7NXMgXKvkl0vbgmce8TYnX0uIDpu4mBI-lWbEhD0uIBzKPMlp0GZVG4q8W9jGhRIL-BU4ppthwF35r9jhhouxNNmsg", "rating": 3, "vicinity": "6 Trang Tien Street, Hoan Kiem District, Ha Noi City", "icon": "https://maps.gstatic.com/mapfiles/place_api/icons/bank_dollar-71.png", "name": "Bac A Bank@ Trang Tien Transactions Office"}, {"opening_hours": {"open_now": false, "weekday_text": []}, "rating": 4, "vicinity": "25 Ph\u1ed1 L\u00ea \u0110\u1ea1i H\u00e0nh, L\u00ea \u0110\u1ea1i H\u00e0nh", "icon": "https://maps.gstatic.com/mapfiles/place_api/icons/bank_dollar-71.png", "scope": "GOOGLE", "id": "4b336da9da72cc23f88cab68d342823f63936319", "photos": [{"height": 532, "photo_reference": "CmRaAAAALzITOyP9jvX11ZEgAYKS8JTryUk-ENSCDAw9Ass2KNg5ss4wz85AL6HvHgi3McdJpZN7TTRZNxQZyQxkRmBM43a8MRoVRMH9OYxXOxkMomSs3GdzoQOQDNg79BqURomgEhCgdix_px9koEum7L0w71bQGhRpE7rAubDxHZyuDQBef56aNeWogQ", "width": 840, "html_attributions": ["<a href=\"https://maps.google.com/maps/contrib/112859573307355661739/photos\">Mr. Tom</a>"]}], "geometry": {"location": {"lat": 21.0104076, "lng": 105.8492676}, "viewport": {"southwest": {"lat": 21.0089899697085, "lng": 105.8479892697085}, "northeast": {"lat": 21.0116879302915, "lng": 105.8506872302915}}}, "place_id": "ChIJN_9bVIqrNTERpwFLy1SerD8", "reference": "CmRRAAAAnslMz07OcVFde7ONOpnDzy3DfTDf7e7HO4S6zCx2SinA_qsK_DIZzupFK_Nv35XZdV5MeqBQGlCKo5UmqKc-dhyc7NKTl7_2gf3m61EyZXoavDmRaPrJ6rvzgOlVxnhwEhCssKOmmfOR0O0adSXR6iYZGhTNuJ67pA7t4J8z7hJsbfaGrf34Lg", "types": ["bank", "finance", "point_of_interest", "establishment"], "name": "Standard Chartered Bank"}, {"place_id": "ChIJJ_4AlJCrNTERIzPGJ_X6I-I", "types": ["bank", "finance", "point_of_interest", "establishment"], "photos": [{"height": 2304, "photo_reference": "CmRaAAAAWd7cjeGF8NEMPGRaqHGF5XM28VJ8W_PRVmw1ELwq0J9abZxOGkY7kXEMzh0hwZmfIuvjX0N-iCmt-1lPL_5VnbENiiA2Cp3pHA9Gty_MC4hO1Tqfmdf4oUlVcCm6Vw7oEhA_uKyVHfCd_tbHsfmQdbXjGhQ87WZSd6BXZgrb7G7XQxia66k4jQ", "width": 4096, "html_attributions": ["<a href=\"https://maps.google.com/maps/contrib/116849388385236749673/photos\">minh ha</a>"]}], "scope": "GOOGLE", "geometry": {"location": {"lat": 21.0238588, "lng": 105.8418855}, "viewport": {"southwest": {"lat": 21.0225845697085, "lng": 105.8405638197085}, "northeast": {"lat": 21.0252825302915, "lng": 105.8432617802915}}}, "id": "93053390d63ea48a1f1c6a86c986a2fae4e9af0d", "reference": "CmRSAAAAa8yvZi83tqx-ZvZ-sYl9saGonzbwe_ttUPRuQwJ7w3tI8FXfRlwQNVVH6dwGa9kShXrOrq-TYjR9s2RbZACprjsN5iBH7UOb0snXMm2L6808tK7bmNitqXUOUZKacf_TEhBO1xI7O0bG6wBoEB8TiS79GhS9ut4rX3yxmaGF9zKlFGuChF1vNw", "rating": 4, "vicinity": "109 Tr\u1ea7n H\u01b0ng \u0110\u1ea1o, Ho\u00e0n Ki\u1ebfm, H\u00e0 N\u1ed9i, 109 Tr\u1ea7n H\u01b0ng \u0110\u1ea1o, C\u1eeda Nam", "icon": "https://maps.gstatic.com/mapfiles/place_api/icons/bank_dollar-71.png", "name": "GP Bank@ Tran Hung Dao Branch"}, {"opening_hours": {"open_now": false, "weekday_text": []}, "rating": 4.8, "vicinity": "57 L\u00fd Th\u01b0\u1eddng Ki\u1ec7t, Tr\u1ea7n H\u01b0ng \u0110\u1ea1o", "icon": "https://maps.gstatic.com/mapfiles/place_api/icons/bank_dollar-71.png", "scope": "GOOGLE", "id": "e1e5905a321edc58974dca6ebebe2bc8b7874a5a", "photos": [{"height": 3024, "photo_reference": "CmRaAAAAjukp1EE1m9Dqvqdg01L0gFmihS-N7VETqzSa-YNFYue7x24Sk5E3bxbzfUT3wmddvd8vyr1EPHIPaGyCmGl6sKP0U4QE7MvdImJFvgOGaOUVHmQmtU8n1oCtpMyhOrxpEhCOV__ZDsrUb2o6o4ol82I-GhQGW7_aU22g4KK9egF-LGrGXb-7QQ", "width": 4032, "html_attributions": ["<a href=\"https://maps.google.com/maps/contrib/110677978631641479280/photos\">\u9ec3\u9433\u8000</a>"]}], "geometry": {"location": {"lat": 21.0237825, "lng": 105.8482906}, "viewport": {"southwest": {"lat": 21.0225274197085, "lng": 105.8469709697085}, "northeast": {"lat": 21.0252253802915, "lng": 105.8496689302915}}}, "place_id": "ChIJk-H_lJOrNTERHeVAckEkDWk", "reference": "CmRRAAAA2LB6gvCst5n119e9mDbGk87Ue-RJkRGvvq0VFqu16KcgLJ5ydZaW8i4sYksN0jiddJNDuJQvtKqhReZxeNIdopiaVI3uX-Y4ul9Szwmb09AxkDXLzhwzH7cl1kZvlnaKEhDXzlQDvmqpuc1AmNusfj8pGhRC9RmpgzivzOAhiWxZG2XG2_bTiw", "types": ["bank", "finance", "point_of_interest", "establishment"], "name": "Ng\u00e2n h\u00e0ng TMCP Ti\u00ean Phong"}, {"place_id": "ChIJ9R489b-rNTER-FNvyFUWzXM", "types": ["bank", "finance", "point_of_interest", "establishment"], "scope": "GOOGLE", "geometry": {"location": {"lat": 21.03183, "lng": 105.8524}, "viewport": {"southwest": {"lat": 21.0304810197085, "lng": 105.8510510197085}, "northeast": {"lat": 21.0331789802915, "lng": 105.8537489802915}}}, "id": "2aaab27638a175eb8851941b6bcfec202882d2eb", "reference": "CmRRAAAAozGx0Ci_U6IiimFT0akeKGvDEznzvp-V3n4-2JTl72fKCMi60Cmnocu57Prb7REJP6VGdtr8ERwq3CTRAZoZ5NESE_ShgIUd_na1oNGgAyyQK8eyY0ysLNWwcPne8E8NEhAmYEn8TAW2rEZBFxBIZXg0GhS9ZhvxGVH0MMvYzqVnciFBqWkKCg", "opening_hours": {"open_now": false, "weekday_text": []}, "vicinity": "S\u1ed1 25 ph\u1ed1 \u0110inh Ti\u00ean Ho\u00e0ng, H\u00e0ng B\u1ea1c, Ho\u00e0n Ki\u1ebfm", "icon": "https://maps.gstatic.com/mapfiles/place_api/icons/bank_dollar-71.png", "name": "PGD 25 \u0110inh Ti\u00ean Ho\u00e0ng - CN H\u00e0 N\u1ed9i - Ng\u00e2n h\u00e0ng TMCP \u0110\u1ea7u t\u01b0 & Ph\u00e1t tri\u1ec3n Vi\u1ec7t Nam (BIDV)"}, {"place_id": "ChIJfUY5p5SrNTERgzC_dFcZMDA", "types": ["bank", "finance", "point_of_interest", "establishment"], "photos": [{"height": 2448, "photo_reference": "CmRaAAAAC8Bjbl657XtfCgmxNGUB4PYLOgXfQRlw73OFqDjD97eWYZL45SbvatUO_UbGaX70Ox6bqluILapyr0g3D51l7p59QaxnpjWNk8DivKlZzRulXujQ1Rwg5a_85rF-jtj6EhC2wWC1uQo96OHsmSpYAzrjGhRRW_ErRVoj_ocvY8Clxx6pdAu1Ug", "width": 3264, "html_attributions": ["<a href=\"https://maps.google.com/maps/contrib/114105808613703982054/photos\">C\u01b0\u1eddng Qu\u1ea3n</a>"]}], "scope": "GOOGLE", "geometry": {"location": {"lat": 21.0248553, "lng": 105.8514797}, "viewport": {"southwest": {"lat": 21.0235206197085, "lng": 105.8500763197085}, "northeast": {"lat": 21.0262185802915, "lng": 105.8527742802915}}}, "id": "c776d7427e5cbd73b75be7a6de1f122710c497e7", "reference": "CmRRAAAA5SYwLPDjX-dyVAzNx9niW5PeUlsM_ByUhSsyvgUtWHc6nCUwxQnBN_BTH6DkMy54UNw95JE8vPeziYS-B0I7exavFX2nRwNzCzRWF7__eFm65fpoRD5K_kiBxZu-7AjZEhDMDlXiGpbWpp2aSZUZYfjAGhQiuiYZzBqgm_skiClIftW5R6iSVA", "opening_hours": {"open_now": false, "weekday_text": []}, "vicinity": "19 B\u00e0 Tri\u1ec7u, Tr\u00e0ng Ti\u1ec1n", "icon": "https://maps.gstatic.com/mapfiles/place_api/icons/bank_dollar-71.png", "name": "Ng\u00e2n H\u00e0ng Tmcp \u0110\u1ea7u T\u01b0 & Ph\u00e1t Tri\u1ec3n Vi\u1ec7t Nam (Bidv) - Pgd Trung T\u00e2m"}, {"place_id": "ChIJI6zu7o2rNTER6Z6UaLwnFh0", "types": ["bank", "finance", "point_of_interest", "establishment"], "scope": "GOOGLE", "geometry": {"location": {"lat": 21.0183696, "lng": 105.8475499}, "viewport": {"southwest": {"lat": 21.0170337697085, "lng": 105.8461529197085}, "northeast": {"lat": 21.0197317302915, "lng": 105.8488508802915}}}, "id": "4ca9da2d3d784057159643cc50701798bb674e3e", "reference": "CmRRAAAABkW9K8qzG1B_BUih_XuUM9TB1YmRcC0mSpTrvzKvZ170fjZIEa21BZCjz40WG9uT0-4smtWtc_Ww84XQRs0IS2LvBJ5l26mpTPN0_YtrOe2sY9XDNOx-kcPV7A6PpaGvEhDw6jvSTP5HsXWJ8v9zUCgeGhSk3GdhZbdFs9L9w_w5Z6prip6OcA", "vicinity": "53 Quang Trung, Nguy\u1ec5n Du", "icon": "https://maps.gstatic.com/mapfiles/place_api/icons/bank_dollar-71.png", "name": "Ng\u00e2n H\u00e0ng Ld Vid Public"}, {"place_id": "ChIJeWAmIeurNTERngJMKT8qNeA", "types": ["bank", "finance", "point_of_interest", "establishment"], "photos": [{"height": 4160, "photo_reference": "CmRaAAAAtlGu6ux2nULZcnHpSuk_nkxCi7kVj1M-O5q6r7vrYE5FHYtVtB8NRlPHPUmmo5mlRU1dW4R0QhWoOTWLol77Xb6eZN78VQYnRhpS_1yIePYWIzv9dIw_jrQTvEK96l7wEhA5VtkqEnLFI8mtVddtrI_RGhRVwUdyqOQE_CWBRJKM4QcINTuGlQ", "width": 3120, "html_attributions": ["<a href=\"https://maps.google.com/maps/contrib/114105808613703982054/photos\">C\u01b0\u1eddng Qu\u1ea3n</a>"]}], "scope": "GOOGLE", "geometry": {"location": {"lat": 21.0272372, "lng": 105.8536731}, "viewport": {"southwest": {"lat": 21.0259127697085, "lng": 105.8523279697085}, "northeast": {"lat": 21.0286107302915, "lng": 105.8550259302915}}}, "id": "9c85a7cb8b0339e8ad40c55ec5aca743127672bf", "reference": "CmRSAAAATMrtBqcaNZHWv3lcE9ikIybonild0XSrT0I__TzdU1WOkpCXrkknOUj1hMjLjK-AD6wiTyFr5vBoS9MUJz8Dt6jKmPVJs6fm_08W90WWM4zwRGgGsm5sBSsbfF4BDsMXEhB_RZkclOXfVwNA1XPjk6DkGhSJ4H8JLYPr1oWEz93UglC5lpvjTQ", "rating": 4, "vicinity": "2 L\u00ea Th\u1ea1ch, Tr\u00e0ng Ti\u1ec1n", "icon": "https://maps.gstatic.com/mapfiles/place_api/icons/bank_dollar-71.png", "name": "Vietin Bank"}, {"opening_hours": {"open_now": false, "weekday_text": []}, "rating": 4, "vicinity": "S\u1ed1 8 L\u00ea Th\u00e1i T\u1ed5, H\u00e0ng Tr\u1ed1ng", "icon": "https://maps.gstatic.com/mapfiles/place_api/icons/bank_dollar-71.png", "scope": "GOOGLE", "id": "1339087f8efd883788404bd1a41324ab833904df", "photos": [{"height": 1836, "photo_reference": "CmRaAAAAQXSzKv7spvbkhjock_MwWgqJ6YkshIQNWMWRIHPkDr3cQZYeS4yNthhhYd8m11VEDfuHu5F179N0ZE-ASAB4LdFMEnDpSaM4A7aSSPzETx0r7myWQz0HzZ5oR43jm4TUEhACEpyAiEqBUk81-cc5KImyGhR4jkqCxhe9EK4ASS_OMgXUgAukcg", "width": 3264, "html_attributions": ["<a href=\"https://maps.google.com/maps/contrib/103722439787761018779/photos\">Tuan Vu</a>"]}], "geometry": {"location": {"lat": 21.0304778, "lng": 105.8509326}, "viewport": {"southwest": {"lat": 21.02911061970849, "lng": 105.8496522197085}, "northeast": {"lat": 21.0318085802915, "lng": 105.8523501802915}}}, "place_id": "ChIJ052d37-rNTERi3o8xG_CZYM", "reference": "CmRSAAAA98Y_JUD6NI2kyPSbFfgItpSjytTY1iYgJOxvPKkSI6cysYhN1rNVqEMGicAlvd05b5cDPoKBjHXS3nZA4EZNCp5x0xKhsWuVVvtvCwpviO-MgK5WlF7w_Zars80qWZYZEhDZ4vZC2xHa2W2lKNGeicjwGhSUqDwcgwKMiuu19_KyX-tYs5UxAw", "types": ["bank", "finance", "point_of_interest", "establishment"], "name": "Bao Vietnam Commercial Joint Stock Bank (BaoVietBank)"}, {"place_id": "ChIJnYPruZSrNTERMLcf2NXkDi4", "types": ["bank", "finance", "point_of_interest", "establishment"], "scope": "GOOGLE", "geometry": {"location": {"lat": 21.0258229, "lng": 105.8516838}, "viewport": {"southwest": {"lat": 21.02446451970849, "lng": 105.8503581697085}, "northeast": {"lat": 21.0271624802915, "lng": 105.8530561302915}}}, "id": "9aafdb06fb7a7def14f96cc48cc28965733dab8d", "reference": "CmRRAAAAg91DNHydpUnpViJXgPlt47i5u3OTxB33bjwcxlm_7-oHygmPK4RyKXnKZsCKdCS9IbY_HEKLiCGH7DuBgJTdw-hK0LCL-6JphbbUcKM6ZUCTDB4AtmvJ00ZYQr6LBaOgEhCAZJxrEHEw0M_-lvE8EeWBGhSy8Xg7dbxYSS_beHERQTUklQs8HQ", "rating": 3.8, "vicinity": "Tr\u00e0ng Thi, H\u00e0ng Tr\u1ed1ng", "icon": "https://maps.gstatic.com/mapfiles/place_api/icons/bank_dollar-71.png", "name": "DongA Bank"}, {"opening_hours": {"open_now": false, "weekday_text": []}, "rating": 4.3, "vicinity": "49 L\u00fd Th\u00e1i T\u1ed5, Tr\u00e0ng Ti\u1ec1n", "icon": "https://maps.gstatic.com/mapfiles/place_api/icons/bank_dollar-71.png", "scope": "GOOGLE", "id": "740ef5fca1ca852e8bdeadaf9e8a474e21b31508", "photos": [{"height": 1350, "photo_reference": "CmRaAAAAisFrisH3FGPFLJiAO2TVLNb1R_Mq2Pdos47tSc5O76m48gQfgzsenAzqcfuLon_OtrTkiVWSGg1iiCQIvbB9Hvvfz7JkMjzWv1fAV3RkWcpEv1MLGl1F-2i-ZJcwQRH5EhBNoPf31G07WBIP1xrmHjyYGhRbio8dPPtLQzZrBujJmJjv1s1Mkg", "width": 2400, "html_attributions": ["<a href=\"https://maps.google.com/maps/contrib/117675652309512499666/photos\">khoi tranduc</a>"]}], "geometry": {"location": {"lat": 21.0272488, "lng": 105.8563906}, "viewport": {"southwest": {"lat": 21.0258998197085, "lng": 105.8550416197085}, "northeast": {"lat": 21.02859778029151, "lng": 105.8577395802915}}}, "place_id": "ChIJ8YghseurNTERzKtjLvns2lE", "reference": "CmRRAAAAM7as4oOX18yNkztsRwVR2g4OtFIq1GqiO3y5qXXocVXkwzAHngnB2zVm7Kirx2WtRcEXTh7zjIcOiFS6L0ZJAJBA9xdOZj0nGCUUMwKAYZPOHOGjmZGqQr4zckBuSLrREhCPzzGRt3q1c3L6ySa5RNBVGhRg2beVtEPedj70O71QE-TN1nl8mg", "types": ["bank", "finance", "point_of_interest", "establishment"], "name": "State Bank of Vietnam"}, {"place_id": "ChIJhdHVAJirNTER9aJJhNH_KPM", "types": ["bank", "finance", "point_of_interest", "establishment"], "photos": [{"height": 4160, "photo_reference": "CmRaAAAAkLWqCf3oQYHRoWE-F_63Uw8SEPGE6-QB0ctk6dC5beJTZNWsuBYXbbpRAZLioA7xMUTJGRxa3wmpxRS_IeXcc-e5padg0p44PIgcfyJlN8r3DTj6dswZYNiTSK0_mZn4EhCYae93tYSa97_b-Xg2OdPIGhTvapOy-0sTxahtk6NngQFNs0SXnQ", "width": 2340, "html_attributions": ["<a href=\"https://maps.google.com/maps/contrib/114912027950116485922/photos\">Naan Kula</a>"]}], "scope": "GOOGLE", "geometry": {"location": {"lat": 21.0314573, "lng": 105.8407054}, "viewport": {"southwest": {"lat": 21.03003636970849, "lng": 105.8392644697085}, "northeast": {"lat": 21.0327343302915, "lng": 105.8419624302915}}}, "id": "7319c2ca0766b77d8c7056820f39e99cece84519", "reference": "CmRSAAAA_5zsapoTAk-rf1ifmg1RU0wkB203e0KzDmmkjYp1b3admel2v5qe6cs4ER_LCmx1d3CnsoXg43D8yM5R-lPTn76ci-o9EzQqNZJbJsQb1075bVe1uQ2ccMFbQ2q5SsFQEhC_2CNJuUX1xYIyz4k0ZiE3GhTYrL5HY-gWajes134gIo7KI5l3ug", "rating": 5, "vicinity": "28a djien bien ha noi, 28A \u0110i\u1ec7n Bi\u00ean Ph\u1ee7, \u0110i\u1ec7n Bi\u00ean, H\u00e0 N\u1ed9i", "icon": "https://maps.gstatic.com/mapfiles/place_api/icons/bank_dollar-71.png", "name": "Military Bank"}, {"place_id": "ChIJpeJxhOqrNTERodrfowdCasg", "types": ["bank", "finance", "point_of_interest", "establishment"], "photos": [{"height": 1836, "photo_reference": "CmRaAAAAs6dPJvAl6tLtvVovbFubGVPLQT90qMsRj-AB5CLXdky7NzhHWTDuj0oqPrTauWRffb1u4L7AAyLFqC7VjOkex1zOxAaMLIZDy4O4zqeD1ZUS7IboJqOIVma72UY0a6AfEhC1nsPprviJssXAxwRZg79CGhQB_3UynKOtTPX0C9IEbzTf9aDE4Q", "width": 3264, "html_attributions": ["<a href=\"https://maps.google.com/maps/contrib/115383901993838047010/photos\">Aslam Mohamed</a>"]}], "scope": "GOOGLE", "geometry": {"location": {"lat": 21.0367752, "lng": 105.8530116}, "viewport": {"southwest": {"lat": 21.03542621970849, "lng": 105.8516626197085}, "northeast": {"lat": 21.0381241802915, "lng": 105.8543605802915}}}, "id": "d2ef7655f3f040a0543362e8bf1903b439895bcd", "reference": "CmRSAAAADgCjJaRhriZpG2M6g_IBgJ82fxHi1w2ZWpImFdyHmue7JK0URbbs0mTDkAQclC1gW4JANNCTVLnGwqdpDoqHwUQ1kAbQcX_3UpWdOFLJkveQbCEeYz3cdoVTIKEeFB78EhB4T9DAX4ChhZs4JLauE399GhRdqLSm0q4OA7fHewTf3RUao4-AOg", "rating": 4.4, "vicinity": "Quan Hoan Kiem", "icon": "https://maps.gstatic.com/mapfiles/place_api/icons/bank_dollar-71.png", "name": "Techcom Bank"}, {"place_id": "ChIJYVYVBe6rNTERlbgqdYGwmxc", "types": ["bank", "finance", "point_of_interest", "establishment"], "scope": "GOOGLE", "geometry": {"location": {"lat": 21.0188658, "lng": 105.8590288}, "viewport": {"southwest": {"lat": 21.0175682197085, "lng": 105.8576969697085}, "northeast": {"lat": 21.0202661802915, "lng": 105.8603949302915}}}, "id": "837683cfde03133aab3b44486dbbb8711203df47", "reference": "CmRRAAAAkLyRvbc_0Fg7CFjYNa2y3rHS43tkALWtel-h9HiW1K-iiTD8Ypg60ndKtAv-3GVP_1XhdiBBWmJN8NdjGAMfEFEBYi9RyJg065YSKneIDgAuQPbW0xcriAFEhgl0tsqpEhCFnwdiZGV2XXWmHXT3C6czGhSKbXwW5JKLDVM6-bcdBuS5CmOL7w", "vicinity": "3 Tr\u1ea7n H\u01b0ng \u0110\u1ea1o, B\u1ea1ch \u0110\u1eb1ng", "icon": "https://maps.gstatic.com/mapfiles/place_api/icons/bank_dollar-71.png", "name": "Military Bank"}, {"place_id": "ChIJz3RzbJerNTERLhTIPoxZt4Y", "types": ["bank", "finance", "point_of_interest", "establishment"], "photos": [{"height": 2448, "photo_reference": "CmRaAAAAYjn0r_46Uabd3qEcYB6i0YP8RcSmBdRX5DGpt5UuS_-7G4wFEuiJXWsXIDt10Pvt8lHQU29fIFpMRHpkepgf09-B_ayuhwABv4aSVL0fCzfdJwBMocyOSYWwRU68OCMqEhBFKhJgduenmMu-fPrpktGoGhRgj_5oPnLgFBQ8F03cxcqMzTBoyw", "width": 3264, "html_attributions": ["<a href=\"https://maps.google.com/maps/contrib/114105808613703982054/photos\">C\u01b0\u1eddng Qu\u1ea3n</a>"]}], "scope": "GOOGLE", "geometry": {"location": {"lat": 21.0274049, "lng": 105.8419443}, "viewport": {"southwest": {"lat": 21.0261060197085, "lng": 105.8406137197085}, "northeast": {"lat": 21.02880398029151, "lng": 105.8433116802915}}}, "id": "f55151deabd11b8f8b1612477cf4deda9ea1f9c2", "reference": "CmRSAAAAmFRSZMrSvIu0qDcDpM1f_dZ_biSgeQMUGo1EuzjVZlVM9nb3PIKJS3ehtMQRGeLEZtOO7uN1eqpUz-jmTdzugSS9orZZBnNssJqn-svldJ2err-PcvaStvuMkrrkxUROEhB21GVTuOM_CUE70kn8BflDGhTl9MShbhxcqTpZsdz-VYRF7F93Hg", "rating": 5, "vicinity": "Hai B\u00e0 Tr\u01b0ng, C\u1eeda Nam", "icon": "https://maps.gstatic.com/mapfiles/place_api/icons/bank_dollar-71.png", "name": "DongA Bank"}, {"place_id": "ChIJwUqQQ5arNTER3fHqDFHBOSA", "types": ["bank", "finance", "point_of_interest", "establishment"], "scope": "GOOGLE", "geometry": {"location": {"lat": 21.029235, "lng": 105.8448609}, "viewport": {"southwest": {"lat": 21.0278860197085, "lng": 105.8435119197085}, "northeast": {"lat": 21.0305839802915, "lng": 105.8462098802915}}}, "id": "617c2b4e81bdcbbb9669c67c81649d000fcfb34f", "reference": "CmRRAAAARFbF3EyLEtrwjB6Db2zTZbPEVpdkWc7fJ71vd8K3K3gY0wkPs0SeiUyIqPRBAmXU14eN-KOnd1Ko8Sk6q8er_ObYeGV53cyCcJLcWuq1wSaA-UT8a-pUGD-LJP9Fmf4SEhAdXfC8G38QL9UGIoUxt9VoGhTsI3DLwmVJDbvjL7NOFeyE1wKnDw", "rating": 5, "vicinity": "169 - 171, Hang Bong Street, Hang Bong Ward, Hoan Kiem District, Ha Noi City", "icon": "https://maps.gstatic.com/mapfiles/place_api/icons/bank_dollar-71.png", "name": "Vietnam International Commercial Joint Stock Bank"}, {"place_id": "ChIJCQC6Pr6rNTERtd3V-JS_EzE", "types": ["bank", "finance", "point_of_interest", "establishment"], "scope": "GOOGLE", "geometry": {"location": {"lat": 21.0319854, "lng": 105.8484327}, "viewport": {"southwest": {"lat": 21.0306364197085, "lng": 105.8470837197085}, "northeast": {"lat": 21.0333343802915, "lng": 105.8497816802915}}}, "id": "ffc556768d635b811895cc8699998dbbbe9b1229", "reference": "CmRRAAAAO_BGPiY7LKF7OWibVjjzDvBEZgdywQsPq-lER6XGPDX9QZF2sXv2moA4SNkoG3Yq7v3o6lLCATITfjGEZDLPJ2J-RyTfLwgqEXCdIHgbFm21umzBjkwFSYzZthFZTHNqEhB25wVvEjYNonELpRo6HH3AGhSdjgURZmpyOjTS12g2RB573DMqyw", "vicinity": "5, Hang Manh Street, Hang Gai Ward, Hoan Kiem District, Ha Noi City", "icon": "https://maps.gstatic.com/mapfiles/place_api/icons/bank_dollar-71.png", "name": "Saigon Commercial Bank (SCB) - Hang Manh Transaction Office"}, {"place_id": "ChIJ__8_Ae2rNTERcBihXGxExps", "types": ["bank", "finance", "point_of_interest", "establishment"], "scope": "GOOGLE", "geometry": {"location": {"lat": 21.0212259, "lng": 105.8551761}, "viewport": {"southwest": {"lat": 21.0197691197085, "lng": 105.8542088197085}, "northeast": {"lat": 21.02246708029151, "lng": 105.8569067802915}}}, "id": "1d38be39b00ea9651d1c0a554608410d9c1e90f3", "reference": "CmRSAAAAFt1OvMAHfi3lbZ-PE5DW-UqcUj60j8XTri5He5QYBPRkJcQYNOs5rcStGYCdCfQJ_P0lgBlBJ5w80jnSlF9QNUevMF8FH8rOQt-vq03NHWnVuomMRmT90z6mSNsKiYRIEhCrC7QFphf2fopcWNMz1NWYGhQ6uBo9nSQ0nxNP3fJ2PUYSp7IRwA", "vicinity": "T\u00f2a nh\u00e0 Corner Stone Building, Phan Chu Trinh", "icon": "https://maps.gstatic.com/mapfiles/place_api/icons/bank_dollar-71.png", "name": "National Australia Bank Representative Office Hanoi, Vietnam"}, {"place_id": "ChIJ3coErvarNTER5CEtk3EUahM", "types": ["bank", "finance", "point_of_interest", "establishment"], "scope": "GOOGLE", "geometry": {"location": {"lat": 21.0121431, "lng": 105.8587395}, "viewport": {"southwest": {"lat": 21.01079411970849, "lng": 105.8573905197085}, "northeast": {"lat": 21.0134920802915, "lng": 105.8600884802915}}}, "id": "da5688b028a15b180f773f0583e54aa3b9bd50ca", "rating": 4, "reference": "CmRRAAAAA2nhj7n3_-2bsDgG1xiZwHmEqgAL-KY2BX46EK2kUvoKUgfQ5Lxm9VMTI3L0MxWn6tFKQQif05PH3E96_HFkpotgF5iQaTJ8efHTOGjZEoGbOgVgm8OmRw7QcN4yOvnBEhD5wnvJ1CmcwZuYAFFlarhxGhQnyWrq7PHpq8fE6NKanwKGlJNHBQ", "opening_hours": {"open_now": true, "weekday_text": []}, "vicinity": "166 Lo Duc Street, Hai Ba Trung District, Ha Noi City", "icon": "https://maps.gstatic.com/mapfiles/place_api/icons/bank_dollar-71.png", "name": "ACB Bank@ Lo Duc Branch"}, {"place_id": "ChIJ60ayp5SrNTERJRBk3TxSsu8", "types": ["bank", "finance", "point_of_interest", "establishment"], "scope": "GOOGLE", "geometry": {"location": {"lat": 21.02472819999999, "lng": 105.8513889}, "viewport": {"southwest": {"lat": 21.02337921970849, "lng": 105.8500399197085}, "northeast": {"lat": 21.0260771802915, "lng": 105.8527378802915}}}, "id": "532a99e7cbde040b3ca2c1dd33c2f2abe78f8173", "reference": "CmRSAAAAFvPXfCLg4QNDjVS0yViBfzYoMC3fI-mX5aoUcdvDjbMfV_ewvmS55vhYBYDsuB1_1B8Wh-m-lilFz8CO9pkJKby2wZhIRuD1W7B5kvRAQxO9QrwFxGBw63Y2j-xfhWa-EhCcp_766gyyzyJAB7QWoZAfGhQGZrnY5D0wYptuYcxCMkuRG9yRkA", "rating": 5, "vicinity": "19, B\u00e0 Tri\u1ec7u, Ph\u01b0\u1eddng Tr\u00e0ng Ti\u1ec1n, Qu\u1eadn Ho\u00e0n Ki\u1ebfm, Tp H\u00e0 N\u1ed9i", "icon": "https://maps.gstatic.com/mapfiles/place_api/icons/bank_dollar-71.png", "name": "Global Petro Commercial Joint Stock Bank"}, {"place_id": "ChIJf_NwQO2rNTERjnbXflfjKbI", "types": ["bank", "finance", "point_of_interest", "establishment"], "scope": "GOOGLE", "geometry": {"location": {"lat": 21.0203714, "lng": 105.853757}, "viewport": {"southwest": {"lat": 21.0190224197085, "lng": 105.8524080197085}, "northeast": {"lat": 21.02172038029151, "lng": 105.8551059802915}}}, "id": "3925d89731c49165d2ecb932f17c8b261758b6a6", "reference": "CmRSAAAAcN-iL31BvNoeQHAFWBAfuzKLQ-TvVYW-PA7tuQ1p6g_fRJgtM2u4EGjxsvOfM8s6RjeZXBUs4wFodIQsOYawK-PT_t3hpsJQcyvYUujzP2KrnZltILKw2tYiR3PurNfnEhAx5sX9nx8aOiTsNHNAXkcfGhQrjefQKhL9Y9u_aIlDac0LQjSSxw", "vicinity": "49, Ngo Quyen Street, Hang Bai Ward, Hoan Kiem District, Ha Noi City", "icon": "https://maps.gstatic.com/mapfiles/place_api/icons/bank_dollar-71.png", "name": "Saigon Hanoi Commercial Joint Stock Bank (SHB)"}, {"place_id": "ChIJS0PNx4OrNTERb4PyTKahgxE", "types": ["bank", "finance", "point_of_interest", "establishment"], "scope": "GOOGLE", "geometry": {"location": {"lat": 21.0162084, "lng": 105.832748}, "viewport": {"southwest": {"lat": 21.0148594197085, "lng": 105.8313990197085}, "northeast": {"lat": 21.0175573802915, "lng": 105.8340969802915}}}, "id": "ef8eae4d0e0394529d2fb0a6782c96b508171b4f", "reference": "CmRRAAAAD1qJ8PsAHH4hkM6A_MyI9KJKqLgO3bBbDQlxIZ479MoOKMlMA2RSu-6IV99mOvI21TdyoUp80MLuC1Mv10xe3WKusGk1lZLjL2cW6priWpwiuYYlpq8iUaf0ADCbxv2uEhDt_u_1p2l9tv4zXDKKz02kGhRoI5WgCtafB2A5E9_nZeNDpfxmHQ", "rating": 5, "vicinity": "390, Xa Dan Street, Dong Da District, Ha Noi City", "icon": "https://maps.gstatic.com/mapfiles/place_api/icons/bank_dollar-71.png", "name": "Joint Stock Commercial Bank For Foreign Trade Of Vietnam (Vietcombank) - Kim Lien Transaction Office"}, {"place_id": "ChIJGxjlNperNTERAv3R64cvf2o", "types": ["bank", "finance", "point_of_interest", "establishment"], "scope": "GOOGLE", "geometry": {"location": {"lat": 21.0260768, "lng": 105.8425411}, "viewport": {"southwest": {"lat": 21.0245410697085, "lng": 105.8411287697085}, "northeast": {"lat": 21.0272390302915, "lng": 105.8438267302915}}}, "id": "f0894ae4303cc7a5c6e670a909fd0de4c3ba74eb", "rating": 3.8, "reference": "CmRRAAAAN0PgkPXlfRyQ24xnyJ_WQvNFnQDyMwsTzB3GDfvQTEer_8Q0O54HqrCPApswMAJXgYO9BikcIIS5hQNIPzWQYgqK2JiLOgLp3y1ezmPb6Nin0fwbR0dUB4MBJ5QhX7iMEhC8fREKHZg_SOLx9YKuJyFzGhQ-9Bn4_wPDbtJq0ctRHaofM41OEQ", "opening_hours": {"open_now": false, "weekday_text": []}, "vicinity": "88 L\u00fd Th\u01b0\u1eddng Ki\u1ec7t, C\u1eeda Nam", "icon": "https://maps.gstatic.com/mapfiles/place_api/icons/bank_dollar-71.png", "name": "Sacom Bank"}, {"place_id": "ChIJ4wpbtJOrNTERAz7wL5tyfRs", "types": ["bank", "finance", "point_of_interest", "establishment"], "scope": "GOOGLE", "geometry": {"location": {"lat": 21.0223616, "lng": 105.8483577}, "viewport": {"southwest": {"lat": 21.0210126197085, "lng": 105.8470087197085}, "northeast": {"lat": 21.0237105802915, "lng": 105.8497066802915}}}, "id": "95012363977b043115e87403244ce15855b70e5e", "reference": "CmRRAAAAoTEFJwDQIWHIS2QLbocpL2uctYGc0ZX9OW0Bo4G8V8al9MUVHtRPlJ6asriVJ_aHT_yLJ8zbNJd9b0uoWy41V7p9Cckj_wTOKzN5jp5ESmWtnFIEW9VyVa2s3Xj7PUH2EhBHegjFAI_7xwdxs_ENQKqMGhSnuXS4_CjemN9-yKLfX4FM0u5JBw", "vicinity": "66A Building, Tran Hung Dao Street, Hoan Kiem District, Ha Noi City", "icon": "https://maps.gstatic.com/mapfiles/place_api/icons/bank_dollar-71.png", "name": "Orient Commercial Joint Stock Bank (OCB) - Thang Long Branch"}, {"place_id": "ChIJX0aYmOyrNTERm91Sjl9oN1g", "types": ["bank", "finance", "point_of_interest", "establishment"], "scope": "GOOGLE", "geometry": {"location": {"lat": 21.0240864, "lng": 105.8540178}, "viewport": {"southwest": {"lat": 21.0227374197085, "lng": 105.8526688197085}, "northeast": {"lat": 21.0254353802915, "lng": 105.8553667802915}}}, "id": "9fe2599155a1acdd32b9f9faff0ce46aa632e817", "reference": "CmRRAAAA_LWseh-_-VJ2BcXbkBJCPaMWlQgNEaQh_lc7JE8vKJ-BZWxcew_Ewiklc1M6Cuxe_g93AQcfF3wXsWC0okQ5W1h8_5XZoTrd2nhT_DxigWIIVpkHqnUvqDl-nPGKEUZPEhAx4fR9LOzpbt14FbxX2GihGhTa2uCZdxF9jFolSUw2gMcNKVtJNw", "vicinity": "Unit 202-203A, Central Building, 31 Hai Ba Trung Street, Hoan Kiem District", "icon": "https://maps.gstatic.com/mapfiles/place_api/icons/bank_dollar-71.png", "name": "Commnwealth Bank Of Australia"}, {"place_id": "ChIJU_QyjeurNTERescm2shqUPY", "types": ["bank", "finance", "point_of_interest", "establishment"], "scope": "GOOGLE", "geometry": {"location": {"lat": 21.0248252, "lng": 105.8569086}, "viewport": {"southwest": {"lat": 21.0234762197085, "lng": 105.8555596197085}, "northeast": {"lat": 21.0261741802915, "lng": 105.8582575802915}}}, "id": "9e10c341bd026bb1990431351d5c4b6b501df5c4", "reference": "CmRSAAAAKFzkDiz6aLkkZXYXGsFllwizMDEN3fuTQ8jfmkkkGB_fI3LqTo50RE9MOa4WhF8Qby8xxYojjarUxPoFCxCfwN_Tq-WDg6r5RM7dFakDvPrgluCI-_EwBkaKsBXT6UP3EhABvN-T6UxtW4MCPPmQLLSfGhTmpCgwwOiqkBbwM4-eajIvj1a6BA", "vicinity": "Floor 6, Regus Centre 63 Ly Thai To Street, Hoan Kiem District", "icon": "https://maps.gstatic.com/mapfiles/place_api/icons/bank_dollar-71.png", "name": "Japan Bank for International Cooperation"}, {"place_id": "ChIJh3gxKJqrNTERz58uXrK_Lu8", "types": ["bank", "finance", "point_of_interest", "establishment"], "photos": [{"height": 2988, "photo_reference": "CmRaAAAAcy-z1543QjaMIGiYaWiKcChpDNzdMnzha3IPByQlRsO661g-JlaZntFv0XKthkvK8OqXKmka5zk74OFkAqiHQM6vlLCDnlOPLhixFdLdTwmSPBrpaxlS2behiqyp_0vpEhCSjt7CdTNBEFGUHFDFwNjOGhSW-Js0enRnTCJ3FCTaxUxJIp3QeA", "width": 5312, "html_attributions": ["<a href=\"https://maps.google.com/maps/contrib/100530652215886930740/photos\">Cuong Nguyen Ngoc</a>"]}], "scope": "GOOGLE", "geometry": {"location": {"lat": 21.0259318, "lng": 105.838412}, "viewport": {"southwest": {"lat": 21.0245828197085, "lng": 105.8370630197085}, "northeast": {"lat": 21.0272807802915, "lng": 105.8397609802915}}}, "id": "b25d8d7641918708274bec77ff08604119a32625", "reference": "CmRSAAAA43cNfT3Fnw67RvmVu_WSzOCPgR8HC6Vl4HT19fkYz6SKGMoyq5y1EO_HxGqiCFNHNPI-Lc3E8vQAk6jB5IP63W0tv-nVvCtYOVv-GAxxjKuR1lwtxcSnXMU13kAwL8puEhDy5TGat0ODmo236gNvi05cGhSvXJXIE6wkV_62pxOMmSJrX75JZQ", "rating": 4, "vicinity": "71, Ngo Sy Lien Street, Dong Da District, Ha Noi City", "icon": "https://maps.gstatic.com/mapfiles/place_api/icons/bank_dollar-71.png", "name": "Bao Viet Joint Stock Commercial Bank (BaoVietBank) - Van Mieu Transaction Office"}, {"opening_hours": {"open_now": true, "weekday_text": []}, "rating": 3.7, "vicinity": "28, Ba Trieu Street, Hang Bai Ward, Hoan Kiem District, Ha Noi City", "icon": "https://maps.gstatic.com/mapfiles/place_api/icons/bank_dollar-71.png", "scope": "GOOGLE", "id": "c6c356a72b49907c74bf70deb8e7755eedab32ea", "photos": [{"height": 1000, "photo_reference": "CmRaAAAA2spDewehBkP8hPQ-53qRvjFVpZXO7u4BcwSs1uITcZ7hZQLidkIqYi3kwqzN--Zs4nl8rycZeFA9GcPWl9mE_F5bz66G1lTd9V2SW5vpI_SozLpK7qDFh51m_QQLRmE6EhDyvaXHpr3aoSUGZ0Xs_pzQGhSnbLEEjb3BI3jhJFxIeeXYwagM1g", "width": 900, "html_attributions": ["<a href=\"https://maps.google.com/maps/contrib/115874928692061580962/photos\">Mr. Tr\u1ea7n Ti\u00ean</a>"]}], "geometry": {"location": {"lat": 21.0236235, "lng": 105.8507233}, "viewport": {"southwest": {"lat": 21.0222745197085, "lng": 105.8493743197085}, "northeast": {"lat": 21.0249724802915, "lng": 105.8520722802915}}}, "place_id": "ChIJm-2Na5OrNTERBVXjXwdoX8Y", "reference": "CmRSAAAALDmOWZ9q5B-uq_ROxRpMljamOGDKvyrD0Q1irC9fR6terncJdcNq4ClXKZzjTNKr5pgNBCrkGoXcwRzhOA_IISktBgMyl7nfawKZPJggmPgEWQQ8ekX6DXlGX4q6tBUWEhBRuNfbfDO5wz3xsvWFDui4GhQnucBhZVGquwSDhaDbTAByqwz5Kg", "types": ["bank", "finance", "point_of_interest", "establishment"], "name": "Military Commercial Joint Stock Bank (MBBank)"}, {"place_id": "ChIJa0Kk2IarNTERhgvz8TDAaEc", "types": ["bank", "finance", "point_of_interest", "establishment"], "scope": "GOOGLE", "geometry": {"location": {"lat": 21.0117657, "lng": 105.835939}, "viewport": {"southwest": {"lat": 21.0104167197085, "lng": 105.8345900197085}, "northeast": {"lat": 21.0131146802915, "lng": 105.8372879802915}}}, "id": "c8248f42fd99475d939a473b798c5081081d0291", "reference": "CmRRAAAAtfJfBITn5ZgzDXDCr3KryiECyhwnktPake3R6zenWJXO_EJBWhqrJ1ulCKkeyKlBzZuvrmroMYwANjSWQWu_HDsWAoXiuQJ-_mcu1jicAe0UMngpEk-EVdFKlPRakTDkEhDMhjqDl609wvcugJWf6DwYGhSzy7VSV9XPRcJXYS4GuBFm8_IYgA", "vicinity": "45, Xa Dan Street, Dong Da District, Ha Noi City", "icon": "https://maps.gstatic.com/mapfiles/place_api/icons/bank_dollar-71.png", "name": "Vietnam Joint Stock Commercial Bank For Industry And Trade (VietinBank) - Xa Dan Transaction office"}, {"place_id": "ChIJl5Mbc7qrNTERvxYsBnD1R6U", "types": ["bank", "finance", "point_of_interest", "establishment"], "scope": "GOOGLE", "geometry": {"location": {"lat": 21.0422257, "lng": 105.8450545}, "viewport": {"southwest": {"lat": 21.0408767197085, "lng": 105.8437055197085}, "northeast": {"lat": 21.0435746802915, "lng": 105.8464034802915}}}, "id": "404dfa6f588d2c6ef91f4fdeaacc217285745534", "reference": "CmRSAAAAQ_D7FWdESNWP2htBY8c_fxHFIlrsQ4PbJZ-aUleV66A96Ir2MiH5O3rfcGXF9GakrrwlKNwMenpuagUzIvmml85MoT0O667LSTxYZUbiAXdvpdwLoeJHADFu7ZZAaYBuEhABcQhdFtjjFoECS6AQeChuGhR2vkrcceOFzrC9y0PVlBxfTzKxTQ", "rating": 4, "vicinity": "Quan Ba Dinh, Hanoi (Ha Noi)", "icon": "https://maps.gstatic.com/mapfiles/place_api/icons/bank_dollar-71.png", "name": "VCB Ha Noi Bank"}, {"place_id": "ChIJKVP7OrqrNTER04vcQIsK36w", "types": ["bank", "finance", "point_of_interest", "establishment"], "scope": "GOOGLE", "geometry": {"location": {"lat": 21.0406574, "lng": 105.845772}, "viewport": {"southwest": {"lat": 21.0393084197085, "lng": 105.8444230197085}, "northeast": {"lat": 21.0420063802915, "lng": 105.8471209802915}}}, "id": "f1c58fe5287de84849091804830e921bbf5f9f4f", "reference": "CmRSAAAArvKYjFftpf0EjS0x1ZpOGcIwcpgHaiIZZSPhtZJFVR-JwXOrip2U2WTDGOyLnbJsoBkXwKY_pDsWUGjP8F-wKnBs0j7jDwGtnW9f66wB2Gmi7-Ce9h9F45CtU9PoC_8OEhAShgm_xsK_jx7w3jFhxYLCGhRXDnFPKTH1qZqDbITGcC3kXCMo7w", "vicinity": "188/3, Quan Thanh Street, Ba Dinh District, Ha Noi City", "icon": "https://maps.gstatic.com/mapfiles/place_api/icons/bank_dollar-71.png", "name": "DongA Joint Stock Commercial Bank - Nguyen Bieu Transaction Office"}, {"place_id": "ChIJYXTPu_arNTERXScHFxaMqAY", "types": ["bank", "finance", "point_of_interest", "establishment"], "scope": "GOOGLE", "geometry": {"location": {"lat": 21.0115621, "lng": 105.859395}, "viewport": {"southwest": {"lat": 21.0101840697085, "lng": 105.8580077197085}, "northeast": {"lat": 21.0128820302915, "lng": 105.8607056802915}}}, "id": "2d6043d1adfda8853a791c21c74c395cc07807ef", "reference": "CmRRAAAAVIiPtTSCPg00plpFo_FDLwwI0Xx-0O5Ugp7s9tQNvL8bcxJaf7PXTjgRSDZg8n7D99T5Zh0C45NI17mahBHjuynKpKn5rxHfMwBGmuJRm_q2JiGP7agi5l9U579e3-4VEhBPhMzlH7AXTnnzeTdOpVGvGhRXjesecUbM6-NdGCfvSgtgVjPPwQ", "vicinity": "125 B1 L\u00f2 \u0110\u00fac, \u0110\u1ed1ng M\u00e1c", "icon": "https://maps.gstatic.com/mapfiles/place_api/icons/bank_dollar-71.png", "name": "GP.Bank"}, {"place_id": "ChIJT3u5mYyrNTERNDaAyVLXGSE", "types": ["bank", "finance", "point_of_interest", "establishment"], "scope": "GOOGLE", "geometry": {"location": {"lat": 21.0138339, "lng": 105.8508039}, "viewport": {"southwest": {"lat": 21.01248491970849, "lng": 105.8494549197085}, "northeast": {"lat": 21.0151828802915, "lng": 105.8521528802915}}}, "id": "992c53e87dc2a61b2c6828502577df3686428dd0", "reference": "CmRRAAAAetpGRchLf-IZH3cXpOfE0FABqiFHpiYrxNLgDwsmhFiqwSIjBqndSqkSIAsjBCHtxt2m8c3g24IvenulPp-iBbSNbg17_ggMLKpXFDrKJYXq98Sz5Ps1ba-FFu7Js7sDEhDLNopzmOVj8OVQ3avDuNkZGhQdXUep7WGCvduN7-zWseFRIDyW9g", "vicinity": "76, Mai Hac De Street, Hai Ba Trung District, Ha Noi City", "icon": "https://maps.gstatic.com/mapfiles/place_api/icons/bank_dollar-71.png", "name": "Vietnam Export Import Commercial Joint Stock Bank (Eximbank) - Nguyen Du Transaction Office"}, {"place_id": "ChIJOTr-q-2rNTERri2fplM18EY", "types": ["bank", "finance", "point_of_interest", "establishment"], "scope": "GOOGLE", "geometry": {"location": {"lat": 21.0210797, "lng": 105.8558035}, "viewport": {"southwest": {"lat": 21.0197100697085, "lng": 105.8545273197085}, "northeast": {"lat": 21.0224080302915, "lng": 105.8572252802915}}}, "id": "cad8d3029d9f57bf697b875f5c0e6eeab1acc656", "reference": "CmRRAAAAfz8qCWQm3FMSzge0S9pp3LpC3vPddKaWJ4NF9Gq4v2C6KJBVNv45C6aZ-Kggz_FEKWDUhno9859qF44imyz7XnBeoagepHiv6hklcwknd5jfat9kuCeJXP6JMdtA7sa3EhDX9r85RK64T_HpAMSNHCWsGhTdEHI5xGVpl8Gbtx0HAdrryFaMZA", "vicinity": "16 Phan Chu Trinh", "icon": "https://maps.gstatic.com/mapfiles/place_api/icons/bank_dollar-71.png", "name": "Malayan Banking Berhad (Maybank)"}, {"place_id": "ChIJ4c2uyYOrNTERee4acMTiN30", "types": ["bank", "finance", "point_of_interest", "establishment"], "scope": "GOOGLE", "geometry": {"location": {"lat": 21.0162529, "lng": 105.8324845}, "viewport": {"southwest": {"lat": 21.0148620697085, "lng": 105.8310911697085}, "northeast": {"lat": 21.0175600302915, "lng": 105.8337891302915}}}, "id": "932ab57fc664bdb79f247377c81a71f8e63c39dd", "reference": "CmRRAAAA9yBct2D0ICvZztLT9l-xiGolOUr-O0J0A_5j4AgPnPClIycvFAyy_jmqYLdU3YPSx4YQ8aR5u3R5XI3qeCsjKuGqu9tfg3Uw9w0cbQQZlscbqcTbQcMMJdMo91P30-JfEhDXEVc0TqEjvb4LcRMhNsVoGhQEQyICKzEyAJwREFLSfatVWnj9zw", "vicinity": "454 X\u00e3 \u0110\u00e0n", "icon": "https://maps.gstatic.com/mapfiles/place_api/icons/bank_dollar-71.png", "name": "Saigon Bank"}, {"place_id": "ChIJQVERCL-rNTERBP7SXZU7MzM", "types": ["bank", "finance", "point_of_interest", "establishment"], "scope": "GOOGLE", "geometry": {"location": {"lat": 21.0336095, "lng": 105.8503806}, "viewport": {"southwest": {"lat": 21.0322605197085, "lng": 105.8490316197085}, "northeast": {"lat": 21.0349584802915, "lng": 105.8517295802915}}}, "id": "b5a1ce5a5c4dec895f2343c0033035bea8830b1b", "rating": 4.3, "reference": "CmRRAAAAmMy0xP2SwFFLCdKieWKXfqX_ggYLbZZeFIlkiR834Atp0YpEJ1tXEn5x7LMJrGzv7CgxP4XjLYGdra8zERbTN_0_NlGd7yqe0Fc6RzuAxGxKFehi6DHihKxOJIW85OZIEhACYF5wCOWTzZ2v3uwBmBcRGhTxA0IeKIw5AvWN_-KA4uMalV8keQ", "opening_hours": {"open_now": true, "weekday_text": []}, "vicinity": "5, Ph\u1ed1 L\u01b0\u01a1ng V\u0103n Can, Ph\u01b0\u1eddng H\u00e0ng \u0110\u00e0o, Qu\u1eadn Ho\u00e0n Ki\u1ebfm", "icon": "https://maps.gstatic.com/mapfiles/place_api/icons/bank_dollar-71.png", "name": "ATM Dong a Bank- Duc Loi Hotel"}, {"place_id": "ChIJGxgElJCrNTER5FOmnDF4Z-o", "types": ["bank", "finance", "point_of_interest", "establishment"], "photos": [{"height": 554, "photo_reference": "CmRaAAAAX7Ot90GGdUKgq08XVT0VMs0cLm41ihGi0rwHK03G09BVlieSpnWCqEDwR6bXDlapNjFn-ArbW6edwfYT9vVu5kvxtMTt8okAhj6kK3r_3nybVQYMe2BXGF1D-5hTNsh7EhADs_Jgxj2xgRMCQOWLRbYsGhQXZ-hCuFM9hUJ7yEAILTT2rIrapQ", "width": 446, "html_attributions": ["<a href=\"https://maps.google.com/maps/contrib/104710112911979909479/photos\">Qu\u00e2n H\u1ed3 V\u01b0\u01a1ng</a>"]}], "scope": "GOOGLE", "geometry": {"location": {"lat": 21.0237746, "lng": 105.8420102}, "viewport": {"southwest": {"lat": 21.0225203197085, "lng": 105.8406957697085}, "northeast": {"lat": 21.0252182802915, "lng": 105.8433937302915}}}, "id": "bce9d39dba3e5b7019b0837df2554b6e048d425e", "reference": "CmRSAAAAbFt5d1ABDKsflAJeKP8TxTleqhtCKAITpf7KyV0yC_dbhxQi95X0hikgLiXmw3EKOaO6zravWiPVBU0X9iXiF9oE-00cL4rDexCz8Yjv950vIzvEnljjUXGoKU9DH1sWEhCaIt8Jb0AjJ8V8E2XNs7wSGhQz1cLu4nJQGc9qUjwRrVUiS5sLIA", "opening_hours": {"open_now": true, "weekday_text": []}, "vicinity": "Tr\u1ea7n H\u01b0ng \u0110\u1ea1o, C\u1eeda Nam", "icon": "https://maps.gstatic.com/mapfiles/place_api/icons/bank_dollar-71.png", "name": "Ng\u00e2n h\u00e0ng LienVietPostBank"}, {"opening_hours": {"open_now": false, "weekday_text": []}, "rating": 3, "vicinity": "27 Ph\u1ed1 L\u00fd Th\u00e1i T\u1ed5, L\u00fd Th\u00e1i T\u1ed5", "icon": "https://maps.gstatic.com/mapfiles/place_api/icons/bank_dollar-71.png", "scope": "GOOGLE", "id": "f3ff44ef3f8f732aedda45d213eae247a3f57d94", "photos": [{"height": 4160, "photo_reference": "CmRaAAAABaRYYN0-mSisXW-Wwz6EB8y0_BfiH77M_-S4QUEmrQuTyYWwpMEytaMzHkR1_QMFGWJZ7pYFXMEROE2LWUhjWjfCg8AolZQ-gZ_YccUV346bD3aUlyPEpoGWC_jlT2fTEhA3YKxGZRn1SROtgYRGFPeeGhSj8SM9Y3NcPL6nXS_sD9eJpsp2Bw", "width": 3120, "html_attributions": ["<a href=\"https://maps.google.com/maps/contrib/117214693389965952268/photos\">H\u01b0ng Ph\u1ea1m Vi\u1ebft</a>"]}], "geometry": {"location": {"lat": 21.02889099999999, "lng": 105.8556211}, "viewport": {"southwest": {"lat": 21.0275135197085, "lng": 105.8541862697085}, "northeast": {"lat": 21.0302114802915, "lng": 105.8568842302915}}}, "place_id": "ChIJhQerYeqrNTERf3XIDkb-gCo", "reference": "CmRRAAAARPw51PwW_AdI9sviIaBM7ta46rK8jkH9-_At6fZ5OVMnZuyDY4hEi3J3PlqqQdW6wQzdTrj15K2tLmtM2NrMIm1ZJtf1IvjWTTzMGBo_MgziP-0uuhLguV1Igiq2np1UEhCrui0HIrjaza6seA7ksHXzGhQFC6MsrFCVuFKntgqwLFnYsOqx9w", "types": ["bank", "finance", "point_of_interest", "establishment"], "name": "Indovina bank - L\u00fd Th\u00e1i T\u1ed5"}, {"place_id": "ChIJnW2nl4urNTERXWMj5ObnxIs", "types": ["bank", "finance", "point_of_interest", "establishment"], "scope": "GOOGLE", "geometry": {"location": {"lat": 21.0120314, "lng": 105.8490054}, "viewport": {"southwest": {"lat": 21.0106824197085, "lng": 105.8476564197085}, "northeast": {"lat": 21.0133803802915, "lng": 105.8503543802915}}}, "id": "2db4e12122c1470546a3731ed0994ab7e45ca119", "reference": "CmRSAAAATyeGoSNSgGy2DecSQVzxt9YEQ0jBp4WxByZklLddNw6-iyDOEqtS5U-AtMBtHhL4SjGdgxpElFbPqOH4s3hd4kQ7QQKlMj9UYgNr6L8CASDssgV9QxO0JDSdmJ67XwwHEhA4rRodV_WrnTsuCVdwV6fdGhT_z7hGwisX_ZQmjjsYApI_2-ElKQ", "vicinity": "306 Ba Trieu StreetHai Ba Trung District", "icon": "https://maps.gstatic.com/mapfiles/place_api/icons/bank_dollar-71.png", "name": "Vietnam Commercial Bank Stock Co. Ltd"}, {"place_id": "ChIJQ4G17PKrNTERUz8ffrHDRHQ", "types": ["bank", "finance", "point_of_interest", "establishment"], "scope": "GOOGLE", "geometry": {"location": {"lat": 21.01720899999999, "lng": 105.8544409}, "viewport": {"southwest": {"lat": 21.01586001970849, "lng": 105.8530919197085}, "northeast": {"lat": 21.0185579802915, "lng": 105.8557898802915}}}, "id": "b4de72fae6d1463bdcf29a58ac8f6d13ebed51c0", "reference": "CmRRAAAA93nns8Jz6MuvinzttUHIq5c3M17xjNdCjTWNdjNqVQ8p3ooJhEE-9V5chxLZvptGySaN9TRLs9FxxP9zzs3n2Y6yDEg1QvsJMD2GA-BkqWHIs-TV94fLAv_33fMny2eOEhCwdDIjN0NIlTADKtOg8BR3GhTC-t2L0okSmpQyfmZHdUVX_sbQCQ", "vicinity": "38, Tran Xuan Soan Street, Ngo Thi Nham Ward, Hai Ba Trung District, Ha Noi City", "icon": "https://maps.gstatic.com/mapfiles/place_api/icons/bank_dollar-71.png", "name": "Bao Viet Joint Stock Commercial Bank (BaoVietBank)"}, {"place_id": "ChIJY1gjr7qrNTERWsEtPS65phk", "types": ["bank", "finance", "point_of_interest", "establishment"], "scope": "GOOGLE", "geometry": {"location": {"lat": 21.042663, "lng": 105.841365}, "viewport": {"southwest": {"lat": 21.04131401970849, "lng": 105.8400160197085}, "northeast": {"lat": 21.0440119802915, "lng": 105.8427139802915}}}, "id": "dd70ef2d0867d6ce8f44ffe4c7de319ac0b56434", "reference": "CmRRAAAAX8kU8RfzSQjZ8mVICzsmvDWIS0XVqAaHI-WxYYrfCHl65JLkUHH5nP8w2EMtsHCqVpzrxizrpBqSBILc232cqJCWGh7FCQNIPp4HT0VA6uACsxe6kBVVtM9wz7lbwivfEhA9zvnPMiSrK7j45fsydItnGhT6wxTwqwBZWgJkyGj3rDP9VRNQkQ", "vicinity": "150 Quan Thanh Street, Ba Dinh District, Ha Noi City", "icon": "https://maps.gstatic.com/mapfiles/place_api/icons/bank_dollar-71.png", "name": "Joint Stock Commercial Bank For Investment And Development Of Vietnam BIDV"}, {"place_id": "ChIJUVcImO2rNTERQ1UI2mktVe8", "types": ["bank", "finance", "point_of_interest", "establishment"], "photos": [{"height": 440, "photo_reference": "CmRaAAAA5uEjrsyypC0H1JZmVwI2YXsZSwl41R9bekqqGdWTlSYh84W29fL2w6nDLd6JUPhxFHSZcnJ8NYD7jv4lQ2kv-bvruqnaDb_6iOQam_MO_KE3dNc9-xdc3So4bTZ1MGcyEhDwgBB9CbaLfML4BhQLgR3ZGhRQQ7PaWwXA293TjE6fiiqzfce_5w", "width": 660, "html_attributions": ["<a href=\"https://maps.google.com/maps/contrib/104710112911979909479/photos\">Qu\u00e2n H\u1ed3 V\u01b0\u01a1ng</a>"]}], "scope": "GOOGLE", "geometry": {"location": {"lat": 21.0199481, "lng": 105.8561307}, "viewport": {"southwest": {"lat": 21.0185498197085, "lng": 105.8547648697085}, "northeast": {"lat": 21.0212477802915, "lng": 105.8574628302915}}}, "id": "56eed5aa1f497df93c63cec64513589df1dc98db", "reference": "CmRSAAAAP_MlAbnW8PBLPqvVFGePl8Gt5HUZAhEh3onCNxVsCJbpQoVQcWdd1b_U75rVABMNURPOQrHve1X__YbST-xAfpU9u5f5RrZmQHgjY6gMZLodOgZ0N4qKO75v_L271UmXEhBAap2uVqKkpF7e9erLRKjhGhRzNLyHpEqj37XXNcCs5lUssvWMPA", "vicinity": "Ng\u00e2n H\u00e0ng Tmcp Ki\u00ean Long (Kienlongbank),, 19 Tr\u1ea7n H\u01b0ng \u0110\u1ea1o, Phan Chu Trinh", "icon": "https://maps.gstatic.com/mapfiles/place_api/icons/bank_dollar-71.png", "name": "Kien Long Bank Lang Ha"}, {"place_id": "ChIJsQUSQperNTERKMPg412qWfQ", "types": ["bank", "finance", "point_of_interest", "establishment"], "scope": "GOOGLE", "geometry": {"location": {"lat": 21.027068, "lng": 105.841802}, "viewport": {"southwest": {"lat": 21.0257190197085, "lng": 105.8404530197085}, "northeast": {"lat": 21.0284169802915, "lng": 105.8431509802915}}}, "id": "05da608e1666b6b5914317e9b5dfee50ef5c1756", "reference": "CmRSAAAAMdwFGMf01ZF6tWBlnJu0RCWDr18gKB-4tI0W_GlfB5QVwn3eaBFQ_TdKjeGhZ9pg3v-YReWtwaBsnV2tddxiTV9pUFe48UJ3ohr2z_sIFNiU5q3LpZoeoCYCpqAg4vhIEhBrqW2mjhYDcQF18sIfkdqcGhQJGOWNwyT5QgSAJs0Ow2Q3Lv4VQg", "vicinity": "37, Le Duan Street, Hoan Kiem District, Ha Noi City", "icon": "https://maps.gstatic.com/mapfiles/place_api/icons/bank_dollar-71.png", "name": "Southern Bank"}]