[{"name": "S.T.U Coffee", "geometry": {"viewport": {"northeast": {"lat": 21.0248350802915, "lng": 105.8522231302915}, "southwest": {"lat": 21.02213711970849, "lng": 105.8495251697085}}, "location": {"lat": 21.0235021, "lng": 105.8508151}}, "rating": 4, "vicinity": "40 B\u00e0 Tri\u1ec7u, Tr\u00e0ng Ti\u1ec1n", "id": "4972b23b0611089ecb597b982549d5eb3333a0d2", "reference": "CmRSAAAAyBh7fqE3RzGOvUW3pc4kgvWAwHPFlty-rlAFy4zL0Uc6lab16sDqaMFYNFmED8o37dNokWm5JA8yabi0ATAUpN0OBk7Y8k7Lypi7MLY3MXzdPQvRut9FyhAhT6gcH1pjEhD1-hdRWGuyQtRDgmlOh0RyGhRM5mCJd-KbfwNwH7s9a39FeSpCFw", "photos": [{"width": 960, "photo_reference": "CmRaAAAA3oTkyV5RjiXY7A7ox2uMZOLdl4smIUOrvdBncwAGnhLQN-XURdQ5mhDqhmVaXZuhzCUCmzUNmIXFjYUW2CMwyztMxh04ocMrwn-EUYwpgNdsi4wuqWaKgWaX0yan45aSEhCvbv7RFNE9uXIjd1_exm6zGhShWI6H0h2MaUBzfncG8nqIurmBCg", "html_attributions": ["<a href=\"https://maps.google.com/maps/contrib/114137610239893750880/photos\">Th\u00e1i Hitacom</a>"], "height": 539}], "icon": "https://maps.gstatic.com/mapfiles/place_api/icons/cafe-71.png", "types": ["cafe", "food", "store", "point_of_interest", "establishment"], "scope": "GOOGLE", "place_id": "ChIJ5aIKQpOrNTERuon8-PCp9dM"}, {"name": "Song Ngoc coffee", "geometry": {"viewport": {"northeast": {"lat": 21.0347800302915, "lng": 105.8558064302915}, "southwest": {"lat": 21.0320820697085, "lng": 105.8531084697085}}, "location": {"lat": 21.0334338, "lng": 105.8544932}}, "rating": 4.8, "vicinity": "39, Nguy\u1ec5n H\u1eefu Hu\u00e2n, L\u00fd Th\u00e1i T\u1ed5", "id": "fbe32961190c7fd4cf6a7baa7fe470747b2ab801", "reference": "CmRSAAAAaGEdMmjDz0A7dotFpti9-TwsPk7oRZki_1TRSR7GAZZqu82iB9u2K2NTV90Wj9R2JT15aIB9rDryMo-ziJXB_25OECSXcsuHoDvnDOqSgffV2RfX_o7_E4k0uNze39_ZEhDnWN9B_bWqn3JkkFQB4OZ2GhQlk_-jU12mAhz0y_xlcaeJ85SKfQ", "photos": [{"width": 1776, "photo_reference": "CmRaAAAAdSNNOe6k1kCfSOdIsOUnvcSR_DcUCZqgbFNVlgT5GUdNT_uZu6EF8nb1qgMv9Zn_MNXsmb0e5wUIcu4N0gyN8fwsAUhDRPjnYBehq4Jjy581i48VuWyjWqFt5RZnOegLEhBzzc-lwqRbWE2Zy055kKMvGhQGQzrtLMrOmACcG92riHhw6ve2Xw", "html_attributions": ["<a href=\"https://maps.google.com/maps/contrib/103918933257175107155/photos\">andry phieter</a>"], "height": 1184}], "icon": "https://maps.gstatic.com/mapfiles/place_api/icons/cafe-71.png", "types": ["cafe", "food", "store", "point_of_interest", "establishment"], "scope": "GOOGLE", "place_id": "ChIJjyHd9sCrNTERSI8nJHvVa-w"}, {"opening_hours": {"weekday_text": [], "open_now": true}, "geometry": {"viewport": {"northeast": {"lat": 21.0142112802915, "lng": 105.8339218802915}, "southwest": {"lat": 21.0115133197085, "lng": 105.8312239197085}}, "location": {"lat": 21.0128448, "lng": 105.8325917}}, "icon": "https://maps.gstatic.com/mapfiles/place_api/icons/cafe-71.png", "photos": [{"width": 720, "photo_reference": "CmRaAAAAmDJJRV2jpiEyHbHMukUgIJ8bwx_GA1znDcHE8Tzgfmk4SZ8Hq4eDUMQnh1eG5-MNi5fVQIPMtrZWWCwVKzi_iplZnXlhkdPhF3nbgQycoDgjDlpFnUJhPST5R36hxS8XEhB9TY8wmHWPemLQwc-cYcJZGhQTYsunB2Ny9IPq5mvxPAM5JHUvzw", "html_attributions": ["<a href=\"https://maps.google.com/maps/contrib/101901601983067534419/photos\">Tu\u1ea5n Tr\u1ea7n</a>"], "height": 540}], "place_id": "ChIJM57cD4GrNTERNVxUqF3EPeQ", "types": ["cafe", "food", "store", "point_of_interest", "establishment"], "name": "Homie's Coffee Studio", "rating": 4.8, "id": "88644007c0103840c733368ae66cad9962728bbb", "reference": "CmRSAAAA5OR_794Eel8om1HMfzPVLV-4Va1mmVKWowZ0-jCQTGSJ-lK-L7JZTzrf6QJgThHrlo9Msl5JkeAKD18foqxyg58sNw0FUxS-6xV0BhGNwzilbp9FtF_HBKQr_4WLjQTuEhAxlInV4XorkG_4-PzuJN1xGhQPV3tBgI0wmk3HgtL6ZIvfoMCk-A", "vicinity": "83 Nam \u0110\u1ed3ng, Ph\u01b0\u01a1ng Li\u00ean", "scope": "GOOGLE"}, {"name": "St Andrew's Coffee", "geometry": {"viewport": {"northeast": {"lat": 21.0283946302915, "lng": 105.8526596802915}, "southwest": {"lat": 21.0256966697085, "lng": 105.8499617197085}}, "location": {"lat": 21.0270353, "lng": 105.8512702}}, "rating": 3.4, "vicinity": "34 L\u00ea Th\u00e1i T\u1ed5, H\u00e0ng Tr\u1ed1ng", "id": "6855a5cecd900501dd8c7fc193deeafa6a1c818e", "reference": "CmRRAAAAvXt6UDqMoMXnCEx_BFIJA0TJD99thWoOWJuIHGsoClnwS6N-sTuuOQoptP005LJ1UcZtXNmkElYPuMxJt4quxatg7gEwoSF9FPwBvjiRST9jE639FTEriYtzob2-oDK5EhCrHd7UhA5whiEKU_8ruA6kGhRqK8isgoWzST9lNj_lnPKDlc2NeA", "photos": [{"width": 5312, "photo_reference": "CmRaAAAAZ75p9I9eDWv1-MvTTWA-uDIpR3_5mCj10QYAMAmQSq1ivqGfLxkmtHBsUdrsVYnddEmYKY6IWNmMIW42_K_6BiW6Y81RqPfeGrdyAs-2hTXeqEnWDbTs3YFQb5-Fe9Z5EhAAb7UtIIxbhuL7jUs0slUIGhQzFZ3-elKxo1VrowERKhpHMsiPaw", "html_attributions": ["<a href=\"https://maps.google.com/maps/contrib/108130525833964546302/photos\">Trananh Tuan</a>"], "height": 2988}], "icon": "https://maps.gstatic.com/mapfiles/place_api/icons/cafe-71.png", "types": ["cafe", "food", "store", "point_of_interest", "establishment"], "scope": "GOOGLE", "place_id": "ChIJvZXn3JSrNTERX8ez9tuX4Fc"}, {"opening_hours": {"weekday_text": [], "open_now": true}, "geometry": {"viewport": {"northeast": {"lat": 21.0224757802915, "lng": 105.8572207302915}, "southwest": {"lat": 21.0197778197085, "lng": 105.8545227697085}}, "location": {"lat": 21.0211589, "lng": 105.8557753}}, "icon": "https://maps.gstatic.com/mapfiles/place_api/icons/cafe-71.png", "price_level": 1, "photos": [{"width": 3024, "photo_reference": "CmRaAAAAdBF0F0fe3rfcB6kyI88XDj1dU5N4Sefh1iknQOuNopSS3xNhXdPiuvZ7ChonvASUzkUi7GCdwt4S75NXpKWxPN7UotYK0Gt9K49AS6YzsXW9vt2tIZRnRuYM_HhSasd7EhAzVnfbccwRZZ9ZjYbW0CCLGhQLtXUWufRlyEnH_FsafSYsicQIhg", "html_attributions": ["<a href=\"https://maps.google.com/maps/contrib/107101729727038917106/photos\">Long Nguy\u1ec5n Ho\u00e0ng</a>"], "height": 4032}], "place_id": "ChIJq5O1q-2rNTER2av7elXPddQ", "types": ["cafe", "food", "point_of_interest", "establishment"], "name": "Coffee Bean & Tea Leaf @Cornerstone Building", "rating": 4.3, "id": "9acb3c527424611623020ad2fc8a627288013b0b", "reference": "CmRSAAAAPyEWSvPHYe6g9ddP75yi8bk0J9p0hsLYkWZNfHbWwSHnwTZtyMMtuurljWQp_f_BIY0R-nY7DmHVqRDSZpdaHVKxa9OZLVRW6Pym15bCr08Ii6zjoaVE9Qp7vUNFLeCeEhBau4lmsHHyrrnaJWBIeaW8GhQ-tQvBqY4w8bCojlKNUrjLE2nPHQ", "vicinity": "16 Phan Chu Trinh", "scope": "GOOGLE"}, {"opening_hours": {"weekday_text": [], "open_now": true}, "geometry": {"viewport": {"northeast": {"lat": 21.0329597302915, "lng": 105.8522448802915}, "southwest": {"lat": 21.0302617697085, "lng": 105.8495469197085}}, "location": {"lat": 21.0316012, "lng": 105.8508698}}, "icon": "https://maps.gstatic.com/mapfiles/place_api/icons/cafe-71.png", "photos": [{"width": 2048, "photo_reference": "CmRZAAAAlS_EovpL7ZBW32UzGsWbJ3UC7TvGhrRAc1vEi44AcE4PddezCmWRlVZHmDypgvKrAH-Yv5k8c5zSaRfJqq17zd-9GIzXhs9-ZjHbxaZNptWoYiEdy5vjwtfGna2bosdDEhCoWhD_MgUa2T92ynw7Kf1hGhSQOEbjBPoY4tZZsE6ThkkwMQhjPw", "html_attributions": ["<a href=\"https://maps.google.com/maps/contrib/110529565808119008777/photos\">The Note Coffee</a>"], "height": 1536}], "place_id": "ChIJl7OUwr-rNTERr7RCHxAFMNU", "types": ["bakery", "cafe", "restaurant", "food", "store", "point_of_interest", "establishment"], "name": "The Note Coffee", "rating": 4.4, "id": "a07357c2ae420cd6fa581225be489309180b9343", "reference": "CmRSAAAAl5spnawF1v3nccdM4J_hiFQM1t6tD0Xv-1IUlW5DG5Q0pEZ8SnWUTCD23nQuLdVpyWtqbH6jQuobmBAWZfbfgIXHfIGydEcdy61TjQZepMkAjOdLGz13ZfVP0gefGG0JEhBHHI-prSyVQQekIecKO7_KGhTuAvqsDjssZRjhHciR42J8B6lgZA", "vicinity": "64 L\u01b0\u01a1ng V\u0103n Can, H\u00e0ng Tr\u1ed1ng", "scope": "GOOGLE"}, {"opening_hours": {"weekday_text": [], "open_now": true}, "geometry": {"viewport": {"northeast": {"lat": 21.0330311302915, "lng": 105.8497715802915}, "southwest": {"lat": 21.0303331697085, "lng": 105.8470736197085}}, "location": {"lat": 21.0319445, "lng": 105.8483185}}, "icon": "https://maps.gstatic.com/mapfiles/place_api/icons/cafe-71.png", "photos": [{"width": 4032, "photo_reference": "CmRaAAAA4BLRfc-a-8VxD9YLMzEraDXsiZbk5-85ksUPm52cES6f0Tbz6Dqu2j6-Q9P8CXJWwOtf1YQqp-GuZ_fvqdWudWJfaWq90XPwLAMBdlATll6Uy-i-hhutanyv_WvBtQ0PEhAw8CwZM6fKFzFNjlxqMqm7GhR7cWfPia-BAsaEPaKAm9mhG88szA", "html_attributions": ["<a href=\"https://maps.google.com/maps/contrib/102626189995613120061/photos\">Bangkok Wheels</a>"], "height": 3024}], "place_id": "ChIJhZuwJL6rNTERI_gSAIpOED0", "types": ["cafe", "food", "store", "point_of_interest", "establishment"], "name": "Cafe HuongMai", "rating": 4.6, "id": "dda30b3fdad20a0e4f0902bcbf64b8bb09cca348", "reference": "CmRRAAAA3VWHywS27XpN0zh1lrbhMDnMPU-R6YqR8cNzImORC2zw-DIMuGWJS0gL-GvW94VvJm385JPoCntOhxWUpbVlk5WoyuyfTBeu6uRNbJJmaxbXS-po3bF3GPzscEKt9h5LEhArEV6PYUvHvH8Xgia8RGsxGhSC9hNky3K88qW5Vu2X8i65InfVhA", "vicinity": "15 H\u00e0ng M\u00e0nh, qu\u1eadn Ho\u00e0n Ki\u1ebfm, Hanoi (Ha Noi)", "scope": "GOOGLE"}, {"opening_hours": {"weekday_text": [], "open_now": true}, "geometry": {"viewport": {"northeast": {"lat": 21.0441415302915, "lng": 105.8392847802915}, "southwest": {"lat": 21.0414435697085, "lng": 105.8365868197085}}, "location": {"lat": 21.0428228, "lng": 105.8379346}}, "icon": "https://maps.gstatic.com/mapfiles/place_api/icons/cafe-71.png", "photos": [{"width": 5312, "photo_reference": "CmRaAAAALnasMgx2ao35gug7qjkjgyrg8QuqB3RRQ2uZu9CkGu9a6Qo-_EWy9VJ3jifFanqBVCZ05OAQTsf6I02oNY2gs9pTtkz2g69ws1N-510hejaanNtODTUgQbbUVynwPQiEEhCe2VBGdMtrmSHOeKvRCC83GhSaxWOmQ9f_0GcM9D2sumEgPRm8yw", "html_attributions": ["<a href=\"https://maps.google.com/maps/contrib/100627321333681260014/photos\">Junsung Park</a>"], "height": 2988}], "place_id": "ChIJDe1CeKWrNTERkqww7mQDC7U", "types": ["cafe", "food", "store", "point_of_interest", "establishment"], "name": "Home Coffee Store", "rating": 4, "id": "ea987c48709f41158884183c57c5db7f41d08ca8", "reference": "CmRSAAAAwNIy_G0bEc1sHLDzNytXpjsRxeFc1TPA6y4t1W0sYALkQ_YTbFzM6MPbEh1QK4o8lkPs6TmHGjoRvyp2__Lo8K0lrVzlaOmtMMfGJ7J1P58WNfZwI765-fbTc7nBlNj9EhBFZae265l2USmyIdrfzehjGhQAy-STnafkILNcvzhzOD3m6mrtMg", "vicinity": "Qu\u00e1n Th\u00e1nh", "scope": "GOOGLE"}, {"opening_hours": {"weekday_text": [], "open_now": true}, "geometry": {"viewport": {"northeast": {"lat": 21.0204105802915, "lng": 105.8494522802915}, "southwest": {"lat": 21.0177126197085, "lng": 105.8467543197085}}, "location": {"lat": 21.0190616, "lng": 105.8481033}}, "icon": "https://maps.gstatic.com/mapfiles/place_api/icons/cafe-71.png", "photos": [{"width": 4096, "photo_reference": "CmRaAAAAd1gUZoxl0ypyBwzFL2bp6vdwHihcWCcZcwHtO99L4FFKFG1S61w2Npj_WiezJnH0SqqTYIMOLusw_VjQKExmeTmV9y4Kxx4dGvpg0etKmwa5rZaVQLgPnCpkmU0if18zEhBl6tSZkme4VAPybfJkPsjMGhS0jNiund60rRsGAKEQsOUyBmF4bw", "html_attributions": ["<a href=\"https://maps.google.com/maps/contrib/115337280332499604594/photos\">\u6728\u6751\u4fe1\u884c</a>"], "height": 2304}], "place_id": "ChIJAwjJio2rNTER05QJFlUw2HM", "types": ["cafe", "food", "store", "point_of_interest", "establishment"], "name": "Mai Coffee Shop", "rating": 3.7, "id": "531b388f19edf88df4acc6426805b28d8a5e7fbc", "reference": "CmRRAAAAtl5OEUG9TMMILGguJV_pglZu40hzw6dz3nkdA0JZzRKTtHaRNtTYuKEr-E-2aopfzVaSfFF4zoS2HaEegnb7R7tTxhgQRfUR5-9ygAfVP_GAlGailU4oEX4l0NXwFFd_EhDhOdpBq928djcsvWNPKRkMGhRrk6X_wfLVXc86M6FatMjGaTiruA", "vicinity": "52 Nguy\u1ec5n Du, Tr\u1ea7n H\u01b0ng \u0110\u1ea1o", "scope": "GOOGLE"}, {"opening_hours": {"weekday_text": [], "open_now": true}, "geometry": {"viewport": {"northeast": {"lat": 21.0226760302915, "lng": 105.8588218802915}, "southwest": {"lat": 21.0199780697085, "lng": 105.8561239197085}}, "location": {"lat": 21.0213736, "lng": 105.8574497}}, "icon": "https://maps.gstatic.com/mapfiles/place_api/icons/cafe-71.png", "photos": [{"width": 4032, "photo_reference": "CmRaAAAAYyWFHoyv_65i4oJMV31PcDyblm3-b2IV2ZUgyVdDqkpFXp8LcckOlXSecwWazXvw5go0jgwle0wLI-m6kSSnoJ1qpyFI8MUC_SLajnv68fYo02yRpBLyEjvqtmw0XKlkEhChR1owEHdF_nNOFpNvhY6AGhTyhGg6wNsSC6AYbqTRWNMsdf04fA", "html_attributions": ["<a href=\"https://maps.google.com/maps/contrib/117341398278203665956/photos\">Chu Huy H\u1ea3i</a>"], "height": 1960}], "place_id": "ChIJzY83M-yrNTERSCfYWLqkV3s", "types": ["cafe", "food", "store", "point_of_interest", "establishment"], "name": "Y-Coffee", "rating": 3.9, "id": "3a1a8ffc47af1c2ef608fe654cf1e6cec0c63580", "reference": "CmRRAAAADYf0wCATTziRdikZPlcOkx8TELyoUlmbfppE9Nxb4wahWwn5_pXrSS4aUteNCaot_KF6cHiS4iRxzr-FiTDBkFMl-3nXUf6mUOAnhtvcLXgeVgYLrRDky_Tu63cZcNBdEhDoTZN50j_3yuTgpOud1gwAGhSVFlpziCgN06pOalDQcRm8WLHfsA", "vicinity": "2 L\u00fd Th\u01b0\u1eddng Ki\u1ec7t, Phan Chu Trinh", "scope": "GOOGLE"}, {"opening_hours": {"weekday_text": [], "open_now": true}, "geometry": {"viewport": {"northeast": {"lat": 21.0358775802915, "lng": 105.8479938802915}, "southwest": {"lat": 21.0331796197085, "lng": 105.8452959197085}}, "location": {"lat": 21.034565, "lng": 105.846653}}, "icon": "https://maps.gstatic.com/mapfiles/place_api/icons/cafe-71.png", "photos": [{"width": 3264, "photo_reference": "CmRaAAAALkArc8A0jfiyA9nfstzQl8XLdOdr5-WWKCJ6LvkeQ3iNgHHIazGUQzHwFUSjIVz27LFNBBRMoMolt0YlTHXZHRP2A5esp6I910KrJq3T1GtMr5J-DF2g2g8mQF0x5jl4EhCuoMlU0rkedphnrO53YoDOGhRe2OYaqor1N_UaLc4Edar6kCVQeA", "html_attributions": ["<a href=\"https://maps.google.com/maps/contrib/103277716351771059217/photos\">Rie Neishi</a>"], "height": 2448}], "place_id": "ChIJqwengr6rNTERQlCrhGBQYGE", "types": ["cafe", "food", "store", "point_of_interest", "establishment"], "name": "M+ Coffee", "rating": 4.4, "id": "11cdb9a6e942c548f7ee35d5e8932f0a69ab5e1d", "reference": "CmRRAAAACbUVsP2r8dPnKKXxFfLVGP-CWwl-WsqVv8kkFkDE_4Mz3XvPQkuwOXHN9pxhX0rd-TD7OTWMDSsZm1R7a6-wbtIiWI0cWKKzUgNpG8RbxMxmJn_UF5QABipl9Yk4nzfeEhAkiSUciIA3EdDwpOAsnIXAGhTxPk4dVTF_aBeuDDAF31pwZ4r6GA", "vicinity": "6 C\u1eeda \u0110\u00f4ng, H\u00e0ng B\u1ed3", "scope": "GOOGLE"}, {"opening_hours": {"weekday_text": [], "open_now": true}, "geometry": {"viewport": {"northeast": {"lat": 21.0305501802915, "lng": 105.8515979802915}, "southwest": {"lat": 21.0278522197085, "lng": 105.8489000197085}}, "location": {"lat": 21.0292012, "lng": 105.850249}}, "icon": "https://maps.gstatic.com/mapfiles/place_api/icons/cafe-71.png", "price_level": 2, "photos": [{"width": 2048, "photo_reference": "CmRaAAAA8Jde-TGXLgz2cuX-KI9zZqYV5JhNn60kymMjvNidAFRoE2RZAbM7sMdr6LeB8kb4ihYe_paACesum3TtdzNqwParNiGxCMdJQhigEbZiKYRTxbyE-ZHh_xpzI7s_8KeuEhA5Ycum29cMDrvnHq8Ss9-GGhQL0_hsSzg13Mk116PG3D74J2ZK5g", "html_attributions": ["<a href=\"https://maps.google.com/maps/contrib/103383720416115972418/photos\">Starbucks Reserve</a>"], "height": 1367}], "place_id": "ChIJ_5FMDZWrNTER02PbRtMjD6M", "types": ["cafe", "food", "store", "point_of_interest", "establishment"], "name": "Starbucks Reserve", "rating": 4.5, "id": "0bbd740a7b5dda908e665a8ce8619a75f1bcd817", "reference": "CmRSAAAAyV1_OEEfvIvuqpqH0LA-LIGemznQKoEXDgAERfsEzJOIN0wRR9QLTIkZvw2sGI-cn0Sl-4P8sAKGdqDD3YMTScKIhoognUq7ZG-EsuuphAsybGjQmi6DpM-xyiBWI4yTEhDlCC-G_ojOfeSzNn73flWlGhQipLFGTcEgKhxqFStr77bK9zadvg", "vicinity": "6 Nh\u00e0 Th\u1edd, H\u00e0ng Tr\u1ed1ng", "scope": "GOOGLE"}, {"opening_hours": {"weekday_text": [], "open_now": true}, "geometry": {"viewport": {"northeast": {"lat": 21.0254760302915, "lng": 105.8544538302915}, "southwest": {"lat": 21.0227780697085, "lng": 105.8517558697085}}, "location": {"lat": 21.0240942, "lng": 105.8530986}}, "icon": "https://maps.gstatic.com/mapfiles/place_api/icons/cafe-71.png", "photos": [{"width": 3840, "photo_reference": "CmRaAAAAgaMLmFTKjvoptuCDxtiTjoQPTwuVQKCVexNSnvY0UQkbzbRSmZVVB49PpXqRPOfDSqFerergKQPLXi6cutlGq5_zu1p9KrZfHqsPRneK-tlno45_Qc_yXcfXcCv3mg5YEhDSOZPiW8jexyJUAE9UAlbLGhSjOm4mFVi5sqTqwsyEuKZ0AaMGkg", "html_attributions": ["<a href=\"https://maps.google.com/maps/contrib/100244895393250061234/photos\">Quanh Ki</a>"], "height": 2160}], "place_id": "ChIJw_sDr-yrNTERhk5r1ZcZeH4", "types": ["cafe", "food", "store", "point_of_interest", "establishment"], "name": "The Coffee House - Hai B\u00e0 Tr\u01b0ng", "rating": 4.2, "id": "15b4a7fe7c21380e7c2dcd142dbf80c2263f6f2c", "reference": "CmRRAAAAcnlO0CBZVtFnHgwVEqq0J5WDKs4_WHEA0liiwp_hl37W4voFfcJPDgevE-F-ofHh1nCG8YMbOg5upBvWcy_LXi8U-3D2Zhvt5NGYM8Nviq6iEFwWBAJrvHvvr0OGxDzSEhD_Jxieta0nwFmAd7IKZj9jGhTde3PG2IFC4Mc8ESZ0qVlSnlgBIg", "vicinity": "T\u1ea7ng 2, 23M Hai B\u00e0 Tr\u01b0ng, Tr\u00e0ng Ti\u1ec1n", "scope": "GOOGLE"}, {"opening_hours": {"weekday_text": [], "open_now": true}, "geometry": {"viewport": {"northeast": {"lat": 21.0146941802915, "lng": 105.8512000802915}, "southwest": {"lat": 21.0119962197085, "lng": 105.8485021197085}}, "location": {"lat": 21.0133168, "lng": 105.8498161}}, "icon": "https://maps.gstatic.com/mapfiles/place_api/icons/cafe-71.png", "photos": [{"width": 7664, "photo_reference": "CmRaAAAAGvbGfuLFLePHeWN6ltQ4KXUdpCrX3pXPOq6NxTOvUKW-L32hGN8csU8uStE_yL7RMlc8Ebh5-Ftw2rKHTrzHcfjdODoyXElMyrCEa7k0XMHCogOY1ljW7bAxWh0mT9b4EhDZggxRnezao8zaY3nQOAegGhRbIC0BHzZLCMElajWe7OQufmtQRQ", "html_attributions": ["<a href=\"https://maps.google.com/maps/contrib/107101729727038917106/photos\">Long Nguy\u1ec5n Ho\u00e0ng</a>"], "height": 3920}], "place_id": "ChIJcTfJg4yrNTEROmSHK5V78FI", "types": ["cafe", "food", "store", "point_of_interest", "establishment"], "name": "The Coffee House - B\u00f9i Th\u1ecb Xu\u00e2n", "rating": 4.1, "id": "3cee84621051ee9b7ae69df056a973c37e2b57de", "reference": "CmRRAAAApPpU-M-SH7RStAV69lPnD9XqP8HV3GXrVeeKlJy71myV1zLGTVmkvMrITDgzBjmCst0r0Pu6sSGHkVUckiCqpuf7X6wE5kjup9YqXKwpTE_DO-u3MqZO7Kuz4U-lTwo1EhBNpVYjkNh468Q68HwP9ChmGhTvIDsca2bx7DVw0a8vDPI3BJMsRg", "vicinity": "122 B\u00f9i Th\u1ecb Xu\u00e2n, Ph\u1ed1 Hu\u1ebf", "scope": "GOOGLE"}, {"opening_hours": {"weekday_text": [], "open_now": true}, "geometry": {"viewport": {"northeast": {"lat": 21.0237706302915, "lng": 105.8518876802915}, "southwest": {"lat": 21.0210726697085, "lng": 105.8491897197085}}, "location": {"lat": 21.022424, "lng": 105.850531}}, "icon": "https://maps.gstatic.com/mapfiles/place_api/icons/cafe-71.png", "photos": [{"width": 4608, "photo_reference": "CmRaAAAAE_svoEUz6tZr6iUif-LpsrGDa5uTqOELiRw89ob_kNvsLAlfliIdcIbD6TegMwhgLvXHeGIFGv2lK9Dr_SkKV9aymRQN3shMdRITHEc7lcFW--_OKYXQeODuPyJ_MPuOEhClBLxhrR0Czcw40bQmdmhWGhQYJv69dw_7XLmr-MtlK34Azbf4iQ", "html_attributions": ["<a href=\"https://maps.google.com/maps/contrib/115702568513960760183/photos\">Nguyen Phuong Ha</a>"], "height": 3456}], "place_id": "ChIJR1akG5OrNTER054pK8R5x90", "types": ["cafe", "food", "store", "point_of_interest", "establishment"], "name": "The Coffee House - B\u00e0 Tri\u1ec7u", "rating": 4.2, "id": "e8d332f3d60946388b7803bf445a1c8eaa5493c9", "reference": "CmRSAAAAIHO0MMaXi7f6yNxme2AcYu1jF8-lkvaWGA3s2f1KMh25IDvL42QI7B3w6LuT0R0AVE7jpign-nhNA935RzTQ1fvuUuNiVcZPxsVxgN4Sy0SxFwaYhdaBdgn5Oc6pNZDBEhBFMGvPzDSlFkCs2cK4Jb9nGhRE7YMZy5tez8b3n87L6h48hrPRKQ", "vicinity": "56A B\u00e0 Tri\u1ec7u, Tr\u1ea7n H\u01b0ng \u0110\u1ea1o", "scope": "GOOGLE"}, {"opening_hours": {"weekday_text": [], "open_now": true}, "geometry": {"viewport": {"northeast": {"lat": 21.0305538302915, "lng": 105.8465548802915}, "southwest": {"lat": 21.0278558697085, "lng": 105.8438569197085}}, "location": {"lat": 21.0293058, "lng": 105.8453651}}, "icon": "https://maps.gstatic.com/mapfiles/place_api/icons/restaurant-71.png", "photos": [{"width": 1650, "photo_reference": "CmRaAAAAAvmMwxLfVQaKyubf4DBMOtJvw2CZo5OHJEzPqPWFmQHrdTLq4GaVhKRqo7uKlP7YG8N3V-puZTBD-MMPCeJ3QlR-JBRh5C3qKc-uMpwY4vK8jmiJ8ikMGaJ49-DBSy2LEhBO90lNeFkqxTk55m1XeAmZGhT-RnrHAFhqFDzkGMqBi12dsEAk0Q", "html_attributions": ["<a href=\"https://maps.google.com/maps/contrib/101784776427078978376/photos\">Hanoi Moment Coffee Fastfood</a>"], "height": 1100}], "place_id": "ChIJi44_bJarNTERCtQMeffx9yc", "types": ["bakery", "cafe", "travel_agency", "restaurant", "food", "store", "point_of_interest", "establishment"], "name": "Hanoi Moment Coffee Fastfood", "rating": 4.3, "id": "d21f4c33cd686a86813d9c61f9ac85d3b5126f32", "reference": "CmRRAAAA2qSh7iHb3JTmu-vCVrYeLeKBojo76FgeczzJOIilEVxBXwrRkqvQE2shpwT6H4fWKZ6srPYbyFcm-U7Y_e-x3ZhM1nEnDDrzaYPXr2z9nexQy9ObUczMYo7s6BBs2hKmEhCq7R5SsSesf2BN5haTDcYwGhQMbv1Jagx25vqeYpmg9kuLuI529A", "vicinity": "159 H\u00e0ng B\u00f4ng", "scope": "GOOGLE"}, {"opening_hours": {"weekday_text": [], "open_now": true}, "geometry": {"viewport": {"northeast": {"lat": 21.0317842302915, "lng": 105.8400711802915}, "southwest": {"lat": 21.02908626970849, "lng": 105.8373732197085}}, "location": {"lat": 21.03049129999999, "lng": 105.8387271}}, "icon": "https://maps.gstatic.com/mapfiles/place_api/icons/cafe-71.png", "photos": [{"width": 539, "photo_reference": "CmRaAAAAqkFrPFNkaD624w45cn94A_eOudcbpl7DNfC5Qi_7JW-maGJ_VV87ZtIGy5-Tpq6nBDsOzYZdb6c-nmqNAH6FE8JPWq-reOwzmxhjbb905vWChdIB9Yki2beqmOmQaK4_EhDHQxeAwhC8soqTXlcLT6BdGhRlNl_67zZSPHAAQtRAuMqqSaD59Q", "html_attributions": ["<a href=\"https://maps.google.com/maps/contrib/102608947177117008576/photos\">D\u01b0\u01a1ng Phong HCHV - H\u00e0 N\u1ed9i \u0110\u1eb9p</a>"], "height": 960}], "place_id": "ChIJ15VIaJirNTERTQWQrsktzB8", "types": ["cafe", "food", "store", "point_of_interest", "establishment"], "name": "Oppa Coffee & Store", "rating": 3.4, "id": "804e4353ac69bbe80d4ee43991476b97734f0a7d", "reference": "CmRRAAAA4MNe2-0wi4i4hj4v71I-LTqiovfdKAa3BoLh1Nqg3WO_e14uGvj8skGxvZvQ61nhZHCaMXr6p_TzJS-KDsRjlerhzZk9T1u3EpDAO2gLpUo_9Zfvrakzo57v5aRrQn96EhD_s1PLvsJuHaFbwDEZ1QL4GhT4UrpXrQIwCZWdnQLW7EdzyIh-qw", "vicinity": "32 Cao B\u00e1 Qu\u00e1t, \u0110i\u1ec7n Bi\u00ean", "scope": "GOOGLE"}, {"name": "Gemini Coffee", "geometry": {"viewport": {"northeast": {"lat": 21.0142529802915, "lng": 105.8338884302915}, "southwest": {"lat": 21.0115550197085, "lng": 105.8311904697085}}, "location": {"lat": 21.0129594, "lng": 105.8324775}}, "rating": 3.8, "vicinity": "57 Nam \u0110\u1ed3ng", "id": "8a040a2e51f1d2b7e16c529055c74c8307273018", "reference": "CmRRAAAAt7Bbgf6ma2UKt-Ds9FHZEH_IGkNleF6DeKnnY-f6oCSD7AjmvlVQDaJeRaYjl3RXtM1cln4afoK2heYw3t_UT8kFWi8fvGCoBWdUfHM9oB81oTKOmx-r7NRWdPUau9U1EhDsBoVNBWeD4U_c65W6STCGGhRzPqk0gIjPyekRxwvJYZ8_W9SpGQ", "photos": [{"width": 4224, "photo_reference": "CmRaAAAAiD82l9hfIHT7zD8MIJtUtc8FcADVSfyZTly9AZQH5FNqskAS2LmsfjN9ltvEWqbl1OXVAApcBW8E4xKo1dpkf0I7VJ5xNz776n3gyZ457nUU_5MOXJidnaqMxHZstA0MEhCQkAE25OhQaYSOskz5ZvpBGhRJ6FNp8SXiubpH5Mo1bpxlGnLTCQ", "html_attributions": ["<a href=\"https://maps.google.com/maps/contrib/108003299263973497121/photos\">Nguy\u1ec5n H\u1eefu Lu\u1eadt</a>"], "height": 2368}], "icon": "https://maps.gstatic.com/mapfiles/place_api/icons/cafe-71.png", "types": ["cafe", "food", "store", "point_of_interest", "establishment"], "scope": "GOOGLE", "place_id": "ChIJXZ8bD4GrNTERbCxwLbQtiTM"}, {"opening_hours": {"weekday_text": [], "open_now": true}, "geometry": {"viewport": {"northeast": {"lat": 21.0372770802915, "lng": 105.8531684802915}, "southwest": {"lat": 21.0345791197085, "lng": 105.8504705197085}}, "location": {"lat": 21.0359335, "lng": 105.8518177}}, "icon": "https://maps.gstatic.com/mapfiles/place_api/icons/cafe-71.png", "photos": [{"width": 3264, "photo_reference": "CmRaAAAA5M-xzI4e0EKWQOz6WddF3_XQInVRhAQHT3sPbdc62asQinFgbObodzewXSLL9D-RVq8phHNnqwjkkXDlbPX9SMNjIt1yiw7_-OwEEyMDlR31Sc1IO-N9374XzCIbOPYFEhC9PCchNLr64L1ViNl2T2PaGhQcmIgejVRUOrNSigDdefo4b9MoJA", "html_attributions": ["<a href=\"https://maps.google.com/maps/contrib/115919686515210436849/photos\">joseba Intxausti</a>"], "height": 2448}], "place_id": "ChIJ3734Ub-rNTER9qWpaCTvopo", "types": ["cafe", "food", "store", "point_of_interest", "establishment"], "name": "Vi Coffee Beans & Tea", "rating": 5, "id": "2173fdd75dc6f111b2040eefe302a8c39afa2028", "reference": "CmRSAAAA0jq-2eWTEIyD1y6XPftsIrlyH86KFShLdVO3t2lkAOPi8oUZN3EHYO0CobxXMJ2N2qhLEjTIaOSs88s_KseNgLkEfV3bstmwwzGt-xYSm-KmYOKSZCX1EzQXcbKXHl4REhCSb1mou6whnpO9mtD-GMckGhRzBgkdo7WUxk888EJqb4fI4KLT7Q", "vicinity": "34 H\u00e0ng Bu\u1ed3m", "scope": "GOOGLE"}, {"opening_hours": {"weekday_text": [], "open_now": true}, "geometry": {"viewport": {"northeast": {"lat": 21.0317311802915, "lng": 105.8385107302915}, "southwest": {"lat": 21.0290332197085, "lng": 105.8358127697085}}, "location": {"lat": 21.0303944, "lng": 105.8371554}}, "icon": "https://maps.gstatic.com/mapfiles/place_api/icons/cafe-71.png", "photos": [{"width": 2304, "photo_reference": "CmRaAAAAqnxH0FSwDMYBYECyQYUJ43NI_fftQfXLmgMxnyAUrvWLjYFa0OoUv-ZMQo-k8JsdzwEFClL1k8_9EDSf5cillLYYFI2qS06qlV4TgEOCwKi4aHJMbkMdPK6pf822DfQnEhBrlNlDMV6TGKHnmKrPelhrGhQh-Y9fN9y75mP3KrA10wHvPyc5uQ", "html_attributions": ["<a href=\"https://maps.google.com/maps/contrib/116849388385236749673/photos\">minh ha</a>"], "height": 4096}], "place_id": "ChIJPRe78pirNTER00y61BTr5qo", "types": ["cafe", "food", "store", "point_of_interest", "establishment"], "name": "Kikyo Coffee", "rating": 3.8, "id": "a4c5731e86c5d5de8ac6ec90595f908966a78738", "reference": "CmRSAAAA3Yxn8nU8_aFcBgAUbAs_8l5pGYzICK6EPBlqifycK_a2FHlDW4MXrta1nQo8ZyQSqd6TYMzH7R9xrv9FJVFMWP9wx0bX6l_BNg4Tf6larL0CNKvN2iHdriZuJ5J68gczEhAdZkemqxofW0e7mYtCYI06GhTqoziXYhCprJfqm_r6QQWzqdkqrA", "vicinity": "38 Cao B\u00e1 Qu\u00e1t, \u0110i\u1ec7n Bi\u00ean", "scope": "GOOGLE"}, {"name": "Young Coffee", "geometry": {"viewport": {"northeast": {"lat": 21.0335556302915, "lng": 105.8551488302915}, "southwest": {"lat": 21.0308576697085, "lng": 105.8524508697085}}, "location": {"lat": 21.032162, "lng": 105.8538689}}, "rating": 4.7, "vicinity": "1 H\u00e0ng D\u1ea7u, \u0110\u1ed3ng Xu\u00e2n", "id": "50dc20f865ce5b9f5cffcda449fbb5274c17242d", "reference": "CmRSAAAAzFIy11WZW9zsd_NTykYu48yOFSd1LHvIV_Rj1Qo7EbVz8u5STI-n45nSoA8gvTgyJn-y8-wE65E1z7CrV8Z7fDnmY2vQHlSKdPqoRQfCehQ32KZHMN1uqBmUg8qQiVb5EhBPF_1Gy-HzjQYZ_NGjjteUGhSZf5f2FLX-eFu-MUETI6jlPzFj8w", "photos": [{"width": 2448, "photo_reference": "CmRaAAAA5jas4W8LXNySg5k5sT6AXJzxhyf7Ex-qoKlz59Zq5fTXm92a0yZzU_t9D_syqqwpUTGQLlPvlt_vIqvbtVN42obqPL564fVjWFwGCzFHeDYJjn2QRkWQ2TBV2iOuwRTrEhDAJWq0_W2tllINI9YXcrrhGhT2t5aaOhEZS61GoM55X9_gLSfkHg", "html_attributions": ["<a href=\"https://maps.google.com/maps/contrib/113106551427841910382/photos\">S\u01a1n cao</a>"], "height": 3264}], "icon": "https://maps.gstatic.com/mapfiles/place_api/icons/cafe-71.png", "types": ["cafe", "food", "store", "point_of_interest", "establishment"], "scope": "GOOGLE", "place_id": "ChIJ1Z5sacCrNTERe5WhOPMUits"}, {"name": "Captain Bean Coffe Shop", "geometry": {"viewport": {"northeast": {"lat": 21.0367931802915, "lng": 105.8518355302915}, "southwest": {"lat": 21.0340952197085, "lng": 105.8491375697085}}, "location": {"lat": 21.035443, "lng": 105.850487}}, "rating": 3.4, "vicinity": "102 H\u00e0ng Bu\u1ed3m", "id": "dbb18e14f9b02610bb8c1630920f4be524c02843", "reference": "CmRRAAAAxvw_xVm4kIGUhqgMgXHjG3zwYVie6kVK0gG-i0TQS6Dn1UdpTclmX2ZX4Hhmh8hTAhq_tkQmlee0_fVgSfSR1Ygp_lNWlPed67z7txkRTKw5jWiGBHBJKYOx2d01LLOpEhA_sDNdUBpwBmvW4xd6TcDFGhRO_wn4DreRi9Rr7fhEm9xuWxT1iQ", "photos": [{"width": 5312, "photo_reference": "CmRaAAAAC9hAREbs4xOOCAs60WPOp4H4mCE6-mE0cHcCstYsjdjaZFQFuaKiezcomtEi1dbfCCNKnsP1HQ0IhUXjFsEwJ6WsSQbCWXaiYSI5-FAWc6AczSm1pfv0_zQZZlqCUzeIEhDr-ozpa5HPLE_r0602OVOrGhQ8q8Y0D1CFHhl6eAEs6DbO1qw2kw", "html_attributions": ["<a href=\"https://maps.google.com/maps/contrib/102180001938137985154/photos\">Tobias Lundgren</a>"], "height": 2988}], "icon": "https://maps.gstatic.com/mapfiles/place_api/icons/cafe-71.png", "types": ["cafe", "food", "store", "point_of_interest", "establishment"], "scope": "GOOGLE", "place_id": "ChIJqeQKO7-rNTERdwhxzqLyF08"}, {"name": "Song Nagc cafe - Egg Coffee", "geometry": {"viewport": {"northeast": {"lat": 21.0346835802915, "lng": 105.8558361802915}, "southwest": {"lat": 21.0319856197085, "lng": 105.8531382197085}}, "location": {"lat": 21.033339, "lng": 105.854544}}, "rating": 4.7, "vicinity": "39 Nguy\u1ec5n H\u1eefu Hu\u00e2n, L\u00fd Th\u00e1i T\u1ed5", "id": "8b172294b76762b2369c6c02ce4050d82937637b", "reference": "CmRRAAAAjQTctJ5Pzs_aVd1_1_97mSrJTFXlx1AIuW3khthPEzLU46wfqj3gAtL63K3WRhJlUkTAk443F5rdSe8WmwvzbI6DR-mW7kAzzCmMNSaZB24K9lZCc25fFy7L0UXxUir2EhBI1wWVvwQ1dFzlFnOzllLmGhTOBmq8G3FRZCOAm6hU_nju4cWzcQ", "photos": [{"width": 3808, "photo_reference": "CmRaAAAAIUAVemzOFuYHLvQumIiNuhYmWCBGyZPYX-KOS-1-rPhyTbFqJXWx4ZXxwTNYKxsfKjc-YnOfDfBMFjEVe3dUw79RVlAOS_AzQXnjvbBavg2HDM9nXDaU9-16yVlw94vtEhCPsudU28H7KUkMP3DGKYxFGhQi11WfjQtNSldCzSRUNyHCrJix9g", "html_attributions": ["<a href=\"https://maps.google.com/maps/contrib/111197953696458630259/photos\">Fiona Liew</a>"], "height": 2144}], "icon": "https://maps.gstatic.com/mapfiles/place_api/icons/cafe-71.png", "types": ["cafe", "food", "store", "point_of_interest", "establishment"], "scope": "GOOGLE", "place_id": "ChIJh1QA98CrNTERHEfDraP6WAQ"}, {"name": "Pansy Coffee", "geometry": {"viewport": {"northeast": {"lat": 21.0371080802915, "lng": 105.8531426802915}, "southwest": {"lat": 21.0344101197085, "lng": 105.8504447197085}}, "location": {"lat": 21.0357457, "lng": 105.8517426}}, "rating": 4, "id": "0e161bcf902b8c7204abcda9f5158c04e9f9e958", "reference": "CmRSAAAA_ebSC9UEYe8521ISRm0ajouAroKOWmB63lLWwnemXqc2h1jHhN1vk0afjGmIC2Vhi-2iY79G-SkCyZGwzQ358zwK2nYkhIV5ZGiUPJUxYsOvw99YdEYjTcTtAXuRpkoYEhCpvyj2RP7UlGTbMsaWPhjYGhQ0epOUTOKTtps3vG821od3unH3fg", "icon": "https://maps.gstatic.com/mapfiles/place_api/icons/cafe-71.png", "place_id": "ChIJySDST7-rNTERlhvwiFH33Mo", "types": ["cafe", "food", "store", "point_of_interest", "establishment"], "scope": "GOOGLE", "vicinity": "2b T\u1ea1 Hi\u1ec7n, H\u00e0ng Bu\u1ed3m"}, {"opening_hours": {"weekday_text": [], "open_now": true}, "geometry": {"viewport": {"northeast": {"lat": 21.0347539802915, "lng": 105.8557379802915}, "southwest": {"lat": 21.0320560197085, "lng": 105.8530400197085}}, "location": {"lat": 21.033405, "lng": 105.854389}}, "icon": "https://maps.gstatic.com/mapfiles/place_api/icons/cafe-71.png", "photos": [{"width": 1500, "photo_reference": "CmRaAAAArf9VtHU6T8pK418wIrJfzhGgGR75bVCsDypSO6udaoFln3ssQs9xfEpMx0QNQrlHODvdAzn6Kv7ybGnpmKOacfy34_LGgmk_Npavdv0wul1iX4Dm8A067NKa6l-3S1PlEhBj28fNopQoLjPpH7Z_0wMCGhTod0eY4qXVFfeOWm4U1gTAeura-Q", "html_attributions": ["<a href=\"https://maps.google.com/maps/contrib/106705489862261136036/photos\">PHIN Coffee</a>"], "height": 845}], "place_id": "ChIJNUea9sCrNTERmlrfR38kbOE", "types": ["cafe", "food", "store", "point_of_interest", "establishment"], "name": "PHIN Coffee", "rating": 5, "id": "27017b554a09d86baa98088a3b4d5ac2723cd869", "reference": "CmRSAAAAs4AMpNz1e4Q1KqH4FMLrPGXaYbg8JTyrUitbYgKgjMeLKLl-Pa0aiMHlIvJlswwUtjMpyjtC_fGi1eARzlG6XO6GQa8rZ6KxLmLy_OfxmpS9KkEfT8uB3tm2eEr5UQIAEhBbRZuZnkRBQZlMj9hzl5MrGhTzwEXqEJQ_Tsf200BZzmgvLkktaA", "vicinity": "58 Nguyen Huu Huan", "scope": "GOOGLE"}, {"opening_hours": {"weekday_text": [], "open_now": true}, "geometry": {"viewport": {"northeast": {"lat": 21.0336260302915, "lng": 105.8537230802915}, "southwest": {"lat": 21.0309280697085, "lng": 105.8510251197085}}, "location": {"lat": 21.032247, "lng": 105.852373}}, "icon": "https://maps.gstatic.com/mapfiles/place_api/icons/cafe-71.png", "photos": [{"width": 4608, "photo_reference": "CmRaAAAAH-rsQ_HK7JoF_6pbAkquIAMIlRo8ltaB2yva7l28w-s4P7s2qOgV1E7-h1s-HNmM-g-9sFBvv8Ba5s4pm6HIlFUVoXc457wxJmmhdcuZ9hmRf7XtCqI4eKZjwWXUB-7IEhCiC6u87a0h_0oG7JZM7_owGhQ-QiHPvRR7o9fbBe0x5OYtTCY89w", "html_attributions": ["<a href=\"https://maps.google.com/maps/contrib/114117151269444341232/photos\">Pree Limpisuree</a>"], "height": 3456}], "place_id": "ChIJSeILdsCrNTERjd7biyMqB4w", "types": ["cafe", "food", "store", "point_of_interest", "establishment"], "name": "i-FEEL Cafe & Lounge", "rating": 4.1, "id": "f4d97d14fee4b7507d7f359a232b09be05294a0a", "reference": "CmRSAAAASQIFO7a-u26kPOstt_mmBvdIaygGiQlgjlPw5B1EandDJr5b3IkMwksKhRVAfIYqP5nu05rmHlKI0CkBnu0BehsMZCjOM3NwN389zxV9N3GyzEBltuts7Ff62VueqaMkEhDEEVGBocyu4P2ElLk7FmFQGhTtaVySNKDRAOQKePQm31Chd83rJg", "vicinity": "63 C\u1ea7u G\u1ed7, H\u00e0ng B\u1ea1c", "scope": "GOOGLE"}, {"name": "New Wonder Coffee", "geometry": {"viewport": {"northeast": {"lat": 21.0346136302915, "lng": 105.8558521302915}, "southwest": {"lat": 21.0319156697085, "lng": 105.8531541697085}}, "location": {"lat": 21.0332698, "lng": 105.8545697}}, "rating": 3.8, "id": "38c7c8585f30ac510521965bceb725b6e221dfa4", "reference": "CmRSAAAA7AvXeBhdlqldOO8O61xekmGCsB38JaOUEpXR_NE67WEAXORcmYWy7rbGY0M6Bf-ZMmF1VgIXdlHtEGxKfK3vGDzkY5hqKxA1u9LvUrT0jgRGrqnwKBZCXIwU2cetqBEREhAMeyNrvB9dWXB8P_14CIR3GhSMh5vbiZwl4VPQ6VA1X7V6UoL7TQ", "icon": "https://maps.gstatic.com/mapfiles/place_api/icons/cafe-71.png", "place_id": "ChIJDx8qX8CrNTERwmeQIvz0Nck", "types": ["cafe", "food", "store", "point_of_interest", "establishment"], "scope": "GOOGLE", "vicinity": "16 h\u00e0ng M\u1eafm, ho\u00e0n ki\u1ebfm, h\u00e0 n\u1ed9i L\u00fd Th\u00e1i T\u1ed5 Ho\u00e0n Ki\u1ebfm H\u00e0 N\u1ed9i"}, {"opening_hours": {"weekday_text": [], "open_now": true}, "geometry": {"viewport": {"northeast": {"lat": 21.0238051802915, "lng": 105.8589869802915}, "southwest": {"lat": 21.0211072197085, "lng": 105.8562890197085}}, "location": {"lat": 21.022292, "lng": 105.857659}}, "icon": "https://maps.gstatic.com/mapfiles/place_api/icons/cafe-71.png", "photos": [{"width": 4608, "photo_reference": "CmRaAAAA8z_pDiocQSIxMCQMLyr__T9FCmjubbTzGapXgB2l8AI2Gj_U37uRqhIw2XZ__97dOXwjN4w3gpd8LJz010g1FH-f_aDpz5FjOW94mk37WTl4J4O-wJaMXVHVLTrKsA1yEhA-WxxHFUxX6kmwZLa9yXKXGhTrL-9owiZ0jr1ybkApxXUWvWmCOA", "html_attributions": ["<a href=\"https://maps.google.com/maps/contrib/101758000043290232042/photos\">Thanh T\u00f9ng Nguy\u1ec5n</a>"], "height": 2592}], "place_id": "ChIJw_DHJOyrNTERxf5THuO5WSU", "types": ["cafe", "food", "store", "point_of_interest", "establishment"], "name": "Argento Coffee Takeaway", "rating": 4.1, "id": "fe67dea44fa13cbc369b42c5981f639f9bf0d6eb", "reference": "CmRRAAAAE8v35sPOl8xeHymJxRjydeQBxkh5LjP1-I3u70aHBtEgWW9aMEVkzhp5Z-HIrYk3BwtUrYU4B9jl398Y3HTK2iHY36RL1x2kbw6RyxC-tA8hqH9ZVX0jmww_HqGjF1f5EhDXEfPqqVikGuNdm9fTy9mUGhRqvNdBAr5nfQ2bq7MmZJN82vXEZA", "vicinity": "6 L\u00ea Th\u00e1nh T\u00f4ng", "scope": "GOOGLE"}, {"opening_hours": {"weekday_text": [], "open_now": true}, "geometry": {"viewport": {"northeast": {"lat": 21.0150950302915, "lng": 105.8620613802915}, "southwest": {"lat": 21.0123970697085, "lng": 105.8593634197085}}, "location": {"lat": 21.0137731, "lng": 105.8607065}}, "icon": "https://maps.gstatic.com/mapfiles/place_api/icons/cafe-71.png", "photos": [{"width": 3264, "photo_reference": "CmRaAAAADpBOsFzYmEyouXqhrLM6L_BIZ5erdBFaDrA8YjPM2TBuWA67PE0l3d_iPjkndwTAEMl2xbhWEq-o54ulSC8Q6Vouk4wic-7MsPTQAq-_xbWfWbobI5i_WgFmJl6QWdwJEhDEth5-5cZabJ4OOxs5gBZaGhRuJ0vUth8Yos1oig91niC5PfRyfQ", "html_attributions": ["<a href=\"https://maps.google.com/maps/contrib/103606260940864788130/photos\">Phung Huong</a>"], "height": 1836}], "place_id": "ChIJOXRUGPGrNTERxVs3_UBulb4", "types": ["cafe", "food", "store", "point_of_interest", "establishment"], "name": "Almond Coffee", "rating": 4.2, "id": "69aa07de20f4149072cd4ecb6690497e0f69e663", "reference": "CmRSAAAAObAUXFtX_gRudu8klM4ykWhzCQ8FxCD_RghEEukP1YapR34jF8ZNYbfjndjUvz404BY_xdLUohr8cMrE4ehplk296ngz_gVyodra2KDMQ7kO0R1fG9B7F81cSCRSgm-YEhDwqUDLqlo50N6g0X3ramyCGhTwTUU5eLEKuz-81Y8f0UbgfupnpA", "vicinity": "30 Nguy\u1ec5n Huy T\u1ef1, B\u1ea1ch \u0110\u1eb1ng", "scope": "GOOGLE"}, {"name": "The Gourmet Coffee & Tea", "geometry": {"viewport": {"northeast": {"lat": 21.0346819802915, "lng": 105.8513489802915}, "southwest": {"lat": 21.0319840197085, "lng": 105.8486510197085}}, "location": {"lat": 21.033333, "lng": 105.85}}, "reference": "CmRRAAAA9GYVKg1ntPbNzxu0Jy6SMP_pKkvjAtjrOR-1OEjJ2B0VtceK_QVahYAkKFOH86UdT95yNYSB30NIwLW7pIMzLCL3Isa40tAiKGQJCWDZX2WgX68xIJOyMkzTv1mFSOIQEhDZ7-O0EjgJOMrlCiWcuoxSGhQ21xQMiqrjILW8nXEaaZBqt3Dy8w", "vicinity": "T\u1ea7ng 1 - T\u00f2a No7B3 - K\u0110T D\u1ecbch V\u1ecdng, Ph\u1ed1 Duy T\u00e2n - Qu\u1eadn C\u1ea7u Gi\u1ea5y", "opening_hours": {"weekday_text": [], "open_now": true}, "icon": "https://maps.gstatic.com/mapfiles/place_api/icons/cafe-71.png", "id": "cae12e7faec4e7286b581e6b4d8d1f79f0a455e4", "types": ["cafe", "food", "store", "point_of_interest", "establishment"], "photos": [{"width": 641, "photo_reference": "CmRaAAAADePfVLdyq1uvK2mEltuP7xiPZusDXPaCj8_rD5rXjABRxVGqeGb6OLWjjTogE-gvSfLQS1D_nd0_gb30fnENN7alqJ6M8L1qcs4DIrPXx_AHWkFbENUp8w6hZhOiClwWEhDU2ARS2nt1ZBvk1g6bI8fRGhTRWu1c_q5jNrD94C_F4E1xJpqDgg", "html_attributions": ["<a href=\"https://maps.google.com/maps/contrib/107093278488115300644/photos\">The Gourmet Coffee &amp; Tea</a>"], "height": 528}], "place_id": "ChIJ6zBvqb-rNTER-KuYPmzuigM", "scope": "GOOGLE"}, {"name": "Up Coffee", "geometry": {"viewport": {"northeast": {"lat": 21.0215544802915, "lng": 105.8427992802915}, "southwest": {"lat": 21.0188565197085, "lng": 105.8401013197085}}, "location": {"lat": 21.0202032, "lng": 105.8414984}}, "rating": 3.5, "vicinity": "3rd Floor, 181 L\u00ea Du\u1ea9n, Nguy\u1ec5n Du", "opening_hours": {"weekday_text": [], "open_now": false}, "reference": "CmRRAAAAb657HLYlrU2kf7Fjcr1R9Z8A7uzf8iAX_Ua5EAUHAS7gLX4XtZzOyyZ7p2WCE4nI_s3WghyUjrfNcvOJQn0fjm-p1gqSqFFQB93rAnzWa74dTCNcq6wlNEFihnqDLvW5EhDZgBMmRUHFv-wzVEh4cUA0GhRb8naM_Lj0lGQEfZC_mjp8AiaS_w", "icon": "https://maps.gstatic.com/mapfiles/place_api/icons/cafe-71.png", "id": "446f2889cdd57e6b33b28470773602ee443a39f0", "types": ["cafe", "food", "store", "point_of_interest", "establishment"], "scope": "GOOGLE", "place_id": "ChIJGwOS4o-rNTERubAX_gOsAS8"}, {"opening_hours": {"weekday_text": [], "open_now": true}, "geometry": {"viewport": {"northeast": {"lat": 21.0329753302915, "lng": 105.8455722802915}, "southwest": {"lat": 21.0302773697085, "lng": 105.8428743197085}}, "location": {"lat": 21.0316243, "lng": 105.8442338}}, "icon": "https://maps.gstatic.com/mapfiles/place_api/icons/cafe-71.png", "photos": [{"width": 4608, "photo_reference": "CmRaAAAAnt6MkvBfgOOO9rwqZwP_ATo_v9riKG1IjHJndqbghOCJrT9Evn2sKoJVATEagUYtBtstkO_j_MKiYJDoI6OlUenSu2zkR2iz7di20KJkVyXLHFOZkZTJpJY-uKXjvvwOEhADzNYogApB76r66yKv_9jdGhTDWT0ejuXyRIR6uKrJRmNpxhu3tA", "html_attributions": ["<a href=\"https://maps.google.com/maps/contrib/102518633319157764159/photos\">Leo hn</a>"], "height": 2592}], "place_id": "ChIJp9fLhb2rNTERwp140dir_Z8", "types": ["cafe", "food", "store", "point_of_interest", "establishment"], "name": "Qu\u00e1n c\u00e0 ph\u00ea C\u01b0 Bao", "rating": 3.4, "id": "77148f3abdbb883c49f64bbaa8d767ae63c63795", "reference": "CmRSAAAA9orDdVRFamMqDV2rsaijgFC0MtRsYACdd86jihRmp3q-4oVj1MILnM2IfNpVMJGgsLdTiIQ7iad57Aq8Gr0JahXU33AVejWyIvSh-puGQ9Kka1KsAFiF_8ZDIA91LfshEhBWPINNK1lFVTU9oGvvOwEwGhQKsovxfUy_sumc1mFdBaAURfR1kQ", "vicinity": "38 L\u00fd Nam \u0110\u1ebf, C\u1eeda \u0110\u00f4ng", "scope": "GOOGLE"}, {"opening_hours": {"weekday_text": [], "open_now": true}, "geometry": {"viewport": {"northeast": {"lat": 21.0337434302915, "lng": 105.8566496302915}, "southwest": {"lat": 21.0310454697085, "lng": 105.8539516697085}}, "location": {"lat": 21.032328, "lng": 105.855265}}, "icon": "https://maps.gstatic.com/mapfiles/place_api/icons/cafe-71.png", "photos": [{"width": 2048, "photo_reference": "CmRaAAAApMFvMCqx8xoTo-1ahWIYJoaAiDiRgZzGcOWWQvAIhk6DTjGebt_CGQhTlIMUwEws4JPNjPpyR8K37a7P9lmWeWfOG9vTI4zGVRFHn6rBWQilsCV2853i6Hgmo3Yqij29EhBXNomm8Lpnx6DCkmmB0jehGhRoBaExJ6CQPhBqMY-Q7f4U91QBbw", "html_attributions": ["<a href=\"https://maps.google.com/maps/contrib/102890859452986308221/photos\">Nh\u1ea1c Cafe - Music Cafe</a>"], "height": 1365}], "place_id": "ChIJL2ufUsCrNTERcu9sLalsdA4", "types": ["cafe", "bar", "restaurant", "food", "store", "point_of_interest", "establishment"], "name": "Music Cafe - Music Cafe", "rating": 4.3, "id": "eb683d1b94d2bee6b28e1b5374ddfa68c6f85950", "reference": "CmRRAAAA8q2_RZucjHEcxEFRXqEjwny164fSxKWGi7_F2biR8GIHHvsax1AYcu4pNVsXZXrd77joJQVJJvIOLdkrh3ob4eXhXamihjHLyJeZRoAVYGvvLVt0LC1uNit4n85LkiFsEhBE8OG-pGrMKEcOoAvfgdNRGhQidD7Ad9qrVusOrom--2ACxIW8Eg", "vicinity": "7 H\u00e0ng Th\u00f9ng, L\u00fd Th\u00e1i T\u1ed5", "scope": "GOOGLE"}, {"name": "Hoa Lan Coffee Shop", "geometry": {"viewport": {"northeast": {"lat": 21.0278892802915, "lng": 105.8443167802915}, "southwest": {"lat": 21.0251913197085, "lng": 105.8416188197085}}, "location": {"lat": 21.0265403, "lng": 105.8429678}}, "rating": 5, "vicinity": "12, Nam Ngu Street, Hoan Kiem District, Ha Noi City", "id": "332b9cd71e07f6c2e83f56322843d916d4277c12", "reference": "CmRRAAAAo6koYL70Tv3LbVihFWBsb40eLLpBku61bnlITPLxLoz42M7sWhvtmIprdkYYFdI2ARSfyc5ysCYLkgs5B1SFsnoU_IxflKxgJ22lEuT-ymFDnbhzto8fraUkbpKsI69uEhDFHbhXp6KKRIkqwMfnp762GhQsfL9kCYIbeWcDZ13q7qySgo4H8w", "photos": [{"width": 2592, "photo_reference": "CmRaAAAAUYLE8rRihF-1TDHkmdaKymjqeW0XaDTCTt3iQJZaWV93qqNYIOCP0rBP1CI-YvUeL2dJ4lITUY1gsIQYOOyYFjXkGHrjUyXxnPyn3iDis5D9FdbbmxlhShU2nDTmdti5EhCTXDmoDQfdOZ9oekTR86eFGhSBxmIFfJTa-O1qXtC6iFWX42eVwg", "html_attributions": ["<a href=\"https://maps.google.com/maps/contrib/105470572109903697058/photos\">L\u00e2m Tc</a>"], "height": 4608}], "icon": "https://maps.gstatic.com/mapfiles/place_api/icons/cafe-71.png", "types": ["cafe", "food", "store", "point_of_interest", "establishment"], "scope": "GOOGLE", "place_id": "ChIJ6b_uPJerNTERMWi4EM6vaAE"}, {"name": "Eden Coffee", "geometry": {"viewport": {"northeast": {"lat": 21.0301397802915, "lng": 105.8508370802915}, "southwest": {"lat": 21.0274418197085, "lng": 105.8481391197085}}, "location": {"lat": 21.0286748, "lng": 105.84945}}, "rating": 4.3, "vicinity": "2 Nh\u00e0 Th\u1edd, H\u00e0ng Tr\u1ed1ng", "id": "1361db00620800ba444745d2d109ee4ddc6892da", "reference": "CmRSAAAA4R-g5x3HXiBA7hduykKQus0YZcjpPxo_S8pOPlcHukOLm8kHhcRbaxqGIk-g9fDR_F-D8p8aCGYVXF5zS3DBts7Hgo4OxePSU08k1LTF-jrGl0qtKz-atRUZjMrhrwruEhDyS6AlpfcI0vv4-n6IwWfXGhSiv2sq9lFORWRqdZnIq-a7jRE8Zw", "photos": [{"width": 4160, "photo_reference": "CmRaAAAAKohzvgJpG5bcp0DBFjldj1xFQkwt-SKHGkdc26Vl2WUd_Ka-9r_GmOTZgDV3_MUcaNnJiX8bKdDfVys9QpIxRBIS8uJozt7lbDn9IuJ5Ll0QC5S07zso8yzvEJBjhF1gEhCzVz-X3TG-W8crYTpJUKw6GhSotq0gfQMoPJVBZCEL8olqmQ5zMg", "html_attributions": ["<a href=\"https://maps.google.com/maps/contrib/107605616965056375617/photos\">Anh Tran</a>"], "height": 3120}], "icon": "https://maps.gstatic.com/mapfiles/place_api/icons/cafe-71.png", "types": ["cafe", "food", "point_of_interest", "establishment"], "scope": "GOOGLE", "place_id": "ChIJ7X32ppWrNTERQc8iz2nehNA"}, {"opening_hours": {"weekday_text": [], "open_now": true}, "geometry": {"viewport": {"northeast": {"lat": 21.0333397802915, "lng": 105.8531772302915}, "southwest": {"lat": 21.0306418197085, "lng": 105.8504792697085}}, "location": {"lat": 21.0320484, "lng": 105.8518372}}, "icon": "https://maps.gstatic.com/mapfiles/place_api/icons/cafe-71.png", "photos": [{"width": 547, "photo_reference": "CmRaAAAAC6XuGLghHbFnJ4pK037r-0dSHXcEUPoN_Rd8BiEjrfCK70_6ysZJhyfwoN1NDu4SaZYAlmKL-ICI3Y79T52O6_V3QsxyA_BaFU0e0ppxM1b0nz1F7S46KizUFqa9YdI8EhDtnG8VWYzjbv8V5fNJpH73GhSZomuicOs4y1mJuFXsSq9n3A5_cg", "html_attributions": ["<a href=\"https://maps.google.com/maps/contrib/108409604803489262185/photos\">Long TranVan</a>"], "height": 332}], "place_id": "ChIJvS5ojb-rNTERgSubBLP-3KQ", "types": ["cafe", "food", "point_of_interest", "establishment"], "name": "Highlands Coffee", "rating": 4.4, "id": "0313a787672bc33c3d68bef37b576b371586cfac", "reference": "CmRSAAAAA50qate5F5SeLzaRRVavuLaUVhDGJcNwbuhhanxePsRphVco9tnF30RZwzTODCh3ZkWi30EmJTPjk5rglfb1lVs6iF-GjvGU4g0yLeELHcO1ypzq-ZvIOGObxIAG-dS0EhBRJuDIzal63vFoQ9r6TseuGhSPO6D_OoVajxS3ubVEnzVByTEA4w", "vicinity": "7 \u0110inh Ti\u00ean Ho\u00e0ng, H\u00e0ng Tr\u1ed1ng", "scope": "GOOGLE"}, {"opening_hours": {"weekday_text": [], "open_now": true}, "geometry": {"viewport": {"northeast": {"lat": 21.0230095802915, "lng": 105.8517205802915}, "southwest": {"lat": 21.0203116197085, "lng": 105.8490226197085}}, "location": {"lat": 21.0216421, "lng": 105.8504361}}, "icon": "https://maps.gstatic.com/mapfiles/place_api/icons/cafe-71.png", "photos": [{"width": 5312, "photo_reference": "CmRaAAAAUNS1poqCADL22hVTKSfPow5-IpESUUOAZ12bILmDnL5jjtrT9OpIwOCRbw9T_UD7vcFJDIYqnQFVC9Ex5JKy8HZ3jktEIlBm3IKZcN7C631krgI1XDq5B3Kui-GyCm6-EhB7PJnQ-_WiIHvtvVVvQo-RGhQiLCuzgCFh8rMggwyEoXTZ3ATq-A", "html_attributions": ["<a href=\"https://maps.google.com/maps/contrib/117927550810058781177/photos\">Viet Khanh</a>"], "height": 2988}], "place_id": "ChIJBUOlHZOrNTERiQXeBFVpO3s", "types": ["cafe", "food", "point_of_interest", "establishment"], "name": "Helio Coffee", "rating": 3.6, "id": "99c94b4cf88925bcb17e1a2dc14281da20b6b08c", "reference": "CmRRAAAADWJe7h9jPlQtib9p7naCSg-miDdzPSVubkySYlIy55JqsLenpQW3M_uE2v8_39EQR55bd5Gf4i65er_PiA336OqfLBP1EvvxEX-TXShWpcn8WqJ_rhiLatCWpIZLXKcbEhChpmIZEYf1erzhZnl0p380GhTtPnJS2NrEtDGpFuvAZZeey4oz1g", "vicinity": "47 B\u00e0 Tri\u1ec7u, Tr\u1ea7n H\u01b0ng \u0110\u1ea1o", "scope": "GOOGLE"}, {"opening_hours": {"weekday_text": [], "open_now": true}, "geometry": {"viewport": {"northeast": {"lat": 21.0316677302915, "lng": 105.8426186302915}, "southwest": {"lat": 21.0289697697085, "lng": 105.8399206697085}}, "location": {"lat": 21.0302053, "lng": 105.8412366}}, "icon": "https://maps.gstatic.com/mapfiles/place_api/icons/cafe-71.png", "photos": [{"width": 3264, "photo_reference": "CmRaAAAAZLTCaNb0FD7U9g4oGoa1qBtdZRVr_Xag74cdP0jdMrITcPDrEAoJT-AaMBpkJ3l71pcIYchhgyw9x3QfdqAP5lRKr_VLNlOEaqTSdvCgP-1GoD9Fli2AfnKGtyr6JJT9EhDUIDTqRDDfzdvCJD-aePDTGhQv802gDYklOC4Z-Aq6C3PessslmQ", "html_attributions": ["<a href=\"https://maps.google.com/maps/contrib/103497818446662255812/photos\">Nguyen Thanh Hung</a>"], "height": 1836}], "place_id": "ChIJ1zr0vZerNTERKDN9oNXxGxw", "types": ["cafe", "food", "point_of_interest", "establishment"], "name": "The Rustics Coffee", "rating": 4.2, "id": "332f7743a40185c656a02fdc3254630db00444cc", "reference": "CmRRAAAA1yMUXujwJ4M2d1_fmAWtPCC7y_k_Lm9qdMmHtI6A0D3v00TdWIkzkvLdY_YQmxEVxDDZFB_6I1HT2v6ycW9L7uS5wvJtbuKTY-QC80RwGNFX_ci9dE7yAU2oPfiVAUq8EhAP4dlB1JjoVDgBM5m8SYgBGhQu1z5cl_VVFrdFLapjIfnYLgSfsg", "vicinity": "21B \u0110i\u1ec7n Bi\u00ean Ph\u1ee7, \u0110i\u1ec7n Bi\u00ean", "scope": "GOOGLE"}, {"opening_hours": {"weekday_text": [], "open_now": true}, "geometry": {"viewport": {"northeast": {"lat": 21.0208528302915, "lng": 105.8510013302915}, "southwest": {"lat": 21.0181548697085, "lng": 105.8483033697085}}, "location": {"lat": 21.0194649, "lng": 105.8497159}}, "icon": "https://maps.gstatic.com/mapfiles/place_api/icons/cafe-71.png", "photos": [{"width": 500, "photo_reference": "CmRaAAAABQR3VtwzBdKKOSi32gDc4mJ3QIcF-RAUl03H1x7sNlgq93jJ20J-sKmWgHlahrthxUzHiN8KFbtwKxgHtZ3WOjoAQkX5HGQDLOzPsKVJu4xBAyHTFwxtZrTJnNJh5dEQEhAeK99IDgYD34VFxr4ADI0_GhSRzweuWr8SejPgxQeCS3YiiHg-rw", "html_attributions": ["<a href=\"https://maps.google.com/maps/contrib/114267066151419775664/photos\">Thi\u1ec7n Tr\u1ea7n</a>"], "height": 350}], "place_id": "ChIJ0Qtah5KrNTERSgSC2t9CUFQ", "types": ["cafe", "food", "point_of_interest", "establishment"], "name": "Lion Coffee", "rating": 4.1, "id": "367afbd4173dc51f05c1b7e2ac6e4caf8ed81f19", "reference": "CmRRAAAA_Pvushejzi1rBnK2e5o8L7xfli0TiGL56ut2K9JPYVDlrIw87XKcNvvVUEKwR-82-8GrH-9-6y0W2mIv6uzTN5nUe3EicaUHSKZigJPp1IZM1zFnUXvAIwP2Nvo51XdjEhBxUyucrIagd82-awhrv2UoGhTE8De10uDYkmpvUjASPAThFw5GsA", "vicinity": "61 B\u00e0 Tri\u1ec7u, H\u00e0ng B\u00e0i", "scope": "GOOGLE"}, {"opening_hours": {"weekday_text": [], "open_now": true}, "geometry": {"viewport": {"northeast": {"lat": 21.0333034802915, "lng": 105.8428084802915}, "southwest": {"lat": 21.03060551970849, "lng": 105.8401105197085}}, "location": {"lat": 21.0319545, "lng": 105.8414595}}, "icon": "https://maps.gstatic.com/mapfiles/place_api/icons/cafe-71.png", "photos": [{"width": 3264, "photo_reference": "CmRaAAAAYn115fFa7Nc2xxrTDcZqtlwqgLahspIoTJTv5ur0EDBy4CwpNlhfBohOGSpC7XklB2WSdJFRLXzw6wTCPB7londu4i_m8jljM_Cbb_bbWi8yVR7Gz8_VmUDU2pP-onz4EhAOaICmfdZdCof1qTpMTjlvGhSqdXhz0E7xRnjbfFvHM4YaI3iZZA", "html_attributions": ["<a href=\"https://maps.google.com/maps/contrib/109340768493584986487/photos\">C\u01b0\u1eddng Ph\u00f9ng</a>"], "height": 2448}], "place_id": "ChIJSaYHne2rNTERLyxVCxQTdQ0", "types": ["cafe", "food", "store", "point_of_interest", "establishment"], "name": "Ohayo Cafe", "rating": 4.7, "id": "310a99326a3650126f3a44bf459a2d014f01be6c", "reference": "CmRRAAAAXSxlwCdIKV7yUNFxWJVRQ8mkU2mBQ1jP1pA0HfKOwQoHYvdSH7MGsX-GLOH_wd3CiypLj3iH-CLLTHC8ynOZYre9kBZYUSVi-XkqMKqlYlhUbRFjC9lfuNPQrcOArG1VEhBc447sEcM1ylk1_LLPh3BgGhSgBFnl74YjTK9uXIA3eE2cAOZzmw", "vicinity": "28B \u0110i\u1ec7n Bi\u00ean Ph\u1ee7, \u0110i\u1ec7n Bi\u00ean", "scope": "GOOGLE"}, {"name": "Highland Coffee Shop", "geometry": {"viewport": {"northeast": {"lat": 21.0267052802915, "lng": 105.8447686802915}, "southwest": {"lat": 21.02400731970849, "lng": 105.8420707197085}}, "location": {"lat": 21.0253098, "lng": 105.8434043}}, "rating": 4.4, "vicinity": "43 L\u00fd Th\u01b0\u1eddng Ki\u1ec7t, C\u1eeda Nam", "id": "01de862e0685154d4d0cb4b7e5c1c1c91bba9607", "reference": "CmRRAAAAgNwWWeQZYPGtLmN7-4pIFWBpBliL4MH5TNWbDJApmdbVmMEGa5DsK1K9ghq1F6cCW2TRJCpSm5K9_TpM5fo92tVoidN7nsmeg_-nuGZ5QBg8M7EWzm0Vie7FmhgsDwq9EhDsA0YtUpswRNsF7JzZIDlnGhQAGzub2sY-ovUZgJqSYQgWHJOusw", "photos": [{"width": 4032, "photo_reference": "CmRaAAAAFLD6PnfHv8zdQd3RJ-5F6yTFvjyW4MYm_FOaGJ1NUbOPk22qhjrYSW18jifUqNIpaS9gCAzt88d9Pjdq6PxXFclcSiGPX0MOp6pfkaZ1ZKhmXGkwzkHY3wDNqsVVxx8XEhBmsxh97UIKvp0mFvIaFQITGhRrmTGYipejByUG3tl0dHc22Y4hkA", "html_attributions": ["<a href=\"https://maps.google.com/maps/contrib/105777713215263013884/photos\">Tr Russia</a>"], "height": 3024}], "icon": "https://maps.gstatic.com/mapfiles/place_api/icons/cafe-71.png", "types": ["cafe", "food", "point_of_interest", "establishment"], "scope": "GOOGLE", "place_id": "ChIJ2Qpk1JCrNTERN8dAMq_3USQ"}, {"name": "O Tree Coffee", "geometry": {"viewport": {"northeast": {"lat": 21.0216229302915, "lng": 105.8441129302915}, "southwest": {"lat": 21.0189249697085, "lng": 105.8414149697085}}, "location": {"lat": 21.020256, "lng": 105.842758}}, "reference": "CmRSAAAAWBorvMEyoAuGMHeC9J308SE3vdhz8rqjfnc2cx28CRsqT0H4N81IYL0yF3fw9ARGQOjVG9CBeUXgPg_e97vaiK2rPSV6b2UL0H4EEmaW_d_64tKmOHAfeUjuca3lPrdsEhC4Xt421zjNF7JvD4BQvzErGhRtd1pIoRxK_mY6ukWhr7-8jMpeWA", "vicinity": "71A Nguy\u1ec5n Du", "opening_hours": {"weekday_text": [], "open_now": true}, "icon": "https://maps.gstatic.com/mapfiles/place_api/icons/cafe-71.png", "id": "978496bf162a7c50e0a965c09c1682ddc541470f", "types": ["cafe", "food", "point_of_interest", "establishment"], "photos": [{"width": 3840, "photo_reference": "CmRaAAAAiXs0tWTK-IzBKT3wTKFC7FcCnglTuSqvo6XR6zwP7uHDdF7Hm1zBjnhzcg7M0diMPw0BDjxIt0oYNyMkqmu1Iql6myOJwoLjicipPOLQBbwAaW47O_d3KUkRBnbP-74AEhCidRvvyL5TtuGWasJBhYbeGhTWk9w8sDJrR4j9u6UImimeliJVjQ", "html_attributions": ["<a href=\"https://maps.google.com/maps/contrib/102639571523154397794/photos\">Long Nguy\u1ec5n V\u0103n</a>"], "height": 2160}], "place_id": "ChIJNdNOJJCrNTERuL3LbwuIWpY", "scope": "GOOGLE"}, {"name": "The Maze", "geometry": {"viewport": {"northeast": {"lat": 21.0373331802915, "lng": 105.8545549302915}, "southwest": {"lat": 21.03463521970849, "lng": 105.8518569697085}}, "location": {"lat": 21.0359958, "lng": 105.8532121}}, "rating": 4.6, "vicinity": "19 M\u00e3 M\u00e2y, H\u00e0ng Bu\u1ed3m", "id": "d871a708654878024b66f5b3b1ab66fdb9961d1b", "reference": "CmRRAAAAAJf9IOQtFbTaL8XHDxKsrV9BpQNLnxaeRmj7r78M-7K3T8F_61qUcYPIxic1RS_JOxj-vWRX00gbGb7Y0F1zrWIG-ZvcfTJTvc1RIQ7iG5Ah5aLadheKQM8AV7m6DCYzEhBadpIRtpthfnSOsaxuIlCfGhTVjgVrczzz-UzmxS1j6RuytAxO3w", "photos": [{"width": 4032, "photo_reference": "CmRaAAAANg2uj6wZQhhTI4hI7SwX_SmrO9ynpsLvhrtgtB2s5VT7Uss1GCXr489DLi0095aePrICzk74w4mrFkGOlmtvV40ss5h12ir369_t3OUU3vVdaFm3R5sRXOKCDO3qrnOdEhB1c8-D6At8K4b-Db1f6aPdGhQvPe7qwuWmQqqIuZ5Po-tICk1y9A", "html_attributions": ["<a href=\"https://maps.google.com/maps/contrib/109246699757007605546/photos\">Dau Quoc Toan</a>"], "height": 3024}], "icon": "https://maps.gstatic.com/mapfiles/place_api/icons/cafe-71.png", "types": ["cafe", "food", "point_of_interest", "establishment"], "scope": "GOOGLE", "place_id": "ChIJQ26-rcCrNTERe_5cQ_-jK1M"}, {"opening_hours": {"weekday_text": [], "open_now": true}, "geometry": {"viewport": {"northeast": {"lat": 21.0168662802915, "lng": 105.8608531802915}, "southwest": {"lat": 21.01416831970849, "lng": 105.8581552197085}}, "location": {"lat": 21.015517, "lng": 105.859503}}, "icon": "https://maps.gstatic.com/mapfiles/place_api/icons/cafe-71.png", "photos": [{"width": 4160, "photo_reference": "CmRaAAAA_bvrdHyoi-Zd0zJJw24HaQFXo_2LMVy8xCgKiqbt0ufuNttgzmTsALblsR8-Nttz_5OkKHyWq66XhANSUsVzT1nvFQFDgUFOlZAFvM1ktZLnRh7_Wiz9ChXOh7JYp936EhA_8DIXxsOt-81T65b2wr1FGhRiUewPf1lDDn2pv3TBx5iakb9jyw", "html_attributions": ["<a href=\"https://maps.google.com/maps/contrib/106346113032782087082/photos\">Nguy\u1ec5n Quang Nam</a>"], "height": 3120}], "place_id": "ChIJXzKDnvGrNTERv4b3KVfZI9M", "types": ["cafe", "food", "point_of_interest", "establishment"], "name": "RAND Moroc & Coffee", "rating": 4.8, "id": "4e81428ac3dd169c9efdccad1f094314572b124b", "reference": "CmRSAAAAbWCO4WXWGQK5hXEo9U3sWQFwjZTarPa-hQ-ISpRTV5FJ8YEB9ycfWttuspKNybdLmqLvPE5CMjUHIWtehMYRyTw7MHgk7x6u_rIOyLAMdgwxLblna9tEn5H-VSrmNNxBEhDTfy9VHFKOa_nLGqvonECvGhRqqZ_kzogd2oiOY22hIJrJJRO-Bg", "vicinity": "2B Tr\u1ea7n Th\u00e1nh T\u00f4ng, Ph\u1ea1m \u0110\u00ecnh H\u1ed3", "scope": "GOOGLE"}, {"opening_hours": {"weekday_text": [], "open_now": true}, "geometry": {"viewport": {"northeast": {"lat": 21.0335130302915, "lng": 105.8549656302915}, "southwest": {"lat": 21.0308150697085, "lng": 105.8522676697085}}, "location": {"lat": 21.032194, "lng": 105.853618}}, "icon": "https://maps.gstatic.com/mapfiles/place_api/icons/cafe-71.png", "photos": [{"width": 4160, "photo_reference": "CmRaAAAArPyYWx2k4UnY3zo2fFH2E3nd3wgt30pSbYTxycCflQuFztUL42uKUe_uR6mpDHYdcWLlTiofWbCpsIkjm8HnO9dvsXUSHbyZUtaWGq74zercL88dBTJOqQVy9JmxhDPsEhDDkAuSEaNnnAhj6WdqWqgQGhR-dClgekWH8wMNMeiXVq1y2ocljg", "html_attributions": ["<a href=\"https://maps.google.com/maps/contrib/111149064923122329168/photos\">Hadoken 13</a>"], "height": 3120}], "place_id": "ChIJ5alSacCrNTER2Ec4B7z9x7g", "types": ["cafe", "food", "point_of_interest", "establishment"], "name": "Coffee & Chill Station", "rating": 4.2, "id": "b1224702da6854d60d44985a5e5dd1c115d5f4cc", "reference": "CmRSAAAAzKzGe6ifPkLWtLMRlNSnNjTzWdissfH_pOoxMkBw-0RjabVDS5slfuKXtff1JayKFumkzHaVDVL1S8YC6OWSNrLnuOUVkX--RBSG2_-E-uoaGmjAZO2KSRAmv009p2EvEhBYRjgScczHch2XGEiQAEs-GhTmkqhdmh3JZ_kIY_CvImLBKi6b8g", "vicinity": "12 C\u1ea7u G\u1ed7, H\u00e0ng B\u1ea1c", "scope": "GOOGLE"}, {"name": "The Coffee Inn", "geometry": {"viewport": {"northeast": {"lat": 21.0355418302915, "lng": 105.8557483802915}, "southwest": {"lat": 21.0328438697085, "lng": 105.8530504197085}}, "location": {"lat": 21.0341936, "lng": 105.8544141}}, "rating": 4, "id": "223285f3c75e04a653122ef85e26ba39936c5d9e", "reference": "CmRRAAAAs-ayNQq6CEYtIkOG-YxofZFcFj5kvOegb6o5TyNmf4BkX6ryx0qsKiIetnZrkT1Wm00YOBcbESv12g8Z4Jr17bFaxG8CNOO11FwNZlXaZZUip0laq7_JuHuGautYu2u7EhCrDVZIL_KR14xrjQjPDUKBGhR5ECSODvNUBSPRuuqz2AoHQlqlRw", "icon": "https://maps.gstatic.com/mapfiles/place_api/icons/cafe-71.png", "place_id": "ChIJ2Ti67sCrNTERqngN-rVT6Fc", "types": ["cafe", "food", "point_of_interest", "establishment"], "scope": "GOOGLE", "vicinity": "29 Nguy\u1ec5n H\u1eefu Hu\u00e2n, L\u00fd Th\u00e1i T\u1ed5"}, {"name": "Align Coffee", "geometry": {"viewport": {"northeast": {"lat": 21.0357538802915, "lng": 105.8550174802915}, "southwest": {"lat": 21.03305591970849, "lng": 105.8523195197085}}, "location": {"lat": 21.03440489999999, "lng": 105.8536685}}, "rating": 3.5, "vicinity": "1b Ma May street, Hoan Kiem district", "id": "cfbd071ac9074c8cdfdbab4fee8664842e7b0e83", "reference": "CmRRAAAAibPCUaaaFshptrlUjJXTc0hziQeMhz50wtXJrSct6l1oGgCX4V4R7yyJB0K8ogXfmizPrv6xj4bqPtmlXt76SwPKq1vNoU3POb8hZ94bnaCI2AnCnHgxnJ50iZnI9r3kEhCCTdJAf2t0KrDiJoIOD1pCGhR3Z611hTw5gxZLXmhemk6RTS_-Nw", "photos": [{"width": 1365, "photo_reference": "CmRaAAAAa_0Y0ha6aoEEm0_w-1goCJoC6hB4jqow7TC0BmvA3KBnD2o6nrUoGxMIePivBf9RaHDlzahZ24gtKjNe1zJYFEhaXJVFiIsk4zLwChGxwtCareuQb4vw8JFCy61qAr8eEhAX6fO8xPD1Xm1UVblgcG06GhSCGwPWWFFYNN2MOagj_Op63SbQiQ", "html_attributions": ["<a href=\"https://maps.google.com/maps/contrib/111183676510564612415/photos\">\u30df\u30f3\u30cf\u30a4</a>"], "height": 2048}], "icon": "https://maps.gstatic.com/mapfiles/place_api/icons/cafe-71.png", "types": ["cafe", "food", "point_of_interest", "establishment"], "scope": "GOOGLE", "place_id": "ChIJM90XlMCrNTERZcZe__B6pVk"}, {"name": "The book coffee", "geometry": {"viewport": {"northeast": {"lat": 21.0220553302915, "lng": 105.8388627802915}, "southwest": {"lat": 21.01935736970849, "lng": 105.8361648197085}}, "location": {"lat": 21.0207079, "lng": 105.837533}}, "rating": 3, "vicinity": "\u0110\u1ed1ng \u0110a, 281 Ng\u00f5 V\u0103n Ch\u01b0\u01a1ng, H\u00e0 N\u1ed9i", "id": "cf64d95dd073bbf545af5c776520efb10134541b", "reference": "CmRSAAAAj-_PGyoW1-EvJwVBb-uUQ82lmPj3S1iCjYukJaxiocdu7zJ8hMR3lgzsJfRpj05_FLQLsmLuatKbr8BlTm52UbLEQp0nlhKGbNkvRjhVJhpLev1spnsfWimzZDtUkGfVEhAW0ThKQnlbsfi-YJaYCUUBGhQDnz5BWBxbaeYGNqewMVOm_f4jhA", "photos": [{"width": 4176, "photo_reference": "CmRaAAAALhMH3N9dQVjqt_VEL43giA3xZWfvPt5CXffZtpKekT7znO2NNtB1JiI76HCueJJedgnt71hu2s6PGgGFA9XwWtEtKTFCBfxQKR5uGxK2eDJJOc8_sPswuDcllpnQ_TZ5EhCXAD1_HP9ETH_4mO1ebxwMGhS8cFPohg_13LZf1UU5JK7x1GF22A", "html_attributions": ["<a href=\"https://maps.google.com/maps/contrib/101738155012397264553/photos\">Xu\u00e2n S\u01a1n Nghi\u00eam</a>"], "height": 3120}], "icon": "https://maps.gstatic.com/mapfiles/place_api/icons/cafe-71.png", "types": ["cafe", "food", "point_of_interest", "establishment"], "scope": "GOOGLE", "place_id": "ChIJyaFGKZurNTERC9dIzHYuBZQ"}, {"opening_hours": {"weekday_text": [], "open_now": true}, "geometry": {"viewport": {"northeast": {"lat": 21.0349004302915, "lng": 105.8562282302915}, "southwest": {"lat": 21.03220246970849, "lng": 105.8535302697085}}, "location": {"lat": 21.0335524, "lng": 105.8548711}}, "icon": "https://maps.gstatic.com/mapfiles/place_api/icons/cafe-71.png", "photos": [{"width": 4032, "photo_reference": "CmRaAAAAdKEhQnuitaBwZyfUyu4ORqRGuW496VJz99-HPRWFh6rz27KaESTcGACfEGT9dVpNhcezk_n9eUZjdWWy-XoRMqOQae5_84ZnQd8QgVYSXgrFVEBWC-uym-K6G8OG7MCwEhA1z_LPEZ5sLYH20FvkwihUGhQrqkgR4F8XjPACbg2cU9u1tHWxhg", "html_attributions": ["<a href=\"https://maps.google.com/maps/contrib/106650367596496616928/photos\">Bevon Raj</a>"], "height": 3024}], "place_id": "ChIJEZ0Y-sCrNTERsQVwsubQy8E", "types": ["cafe", "food", "point_of_interest", "establishment"], "name": "Always Coffee & Butterbeer", "rating": 4.2, "id": "1a3f12d8f0410aed7bf2fce9f833628881087897", "reference": "CmRSAAAADPpYDPy-MUidb7l_cGZIqW7yh2qfQIkQC_qbXq5Tp4iqNiV29dz-O9kIll6siR2U6c8R287w1eyyZ4hw3UVSj93lyoLHnOYZiDtbeNQhEjh-n3TbnNybul4mvzD2dkxXEhCAhnn5sua60uNpqms4lSg1GhQsIDlnFuydLM8sEtn3T3Es4az-tw", "vicinity": "8B H\u00e0ng Tre, L\u00fd Th\u00e1i T\u1ed5", "scope": "GOOGLE"}, {"opening_hours": {"weekday_text": [], "open_now": true}, "geometry": {"viewport": {"northeast": {"lat": 21.0389358802915, "lng": 105.8545907302915}, "southwest": {"lat": 21.0362379197085, "lng": 105.8518927697085}}, "location": {"lat": 21.0375745, "lng": 105.8532259}}, "icon": "https://maps.gstatic.com/mapfiles/place_api/icons/cafe-71.png", "photos": [{"width": 960, "photo_reference": "CmRaAAAALXGcOU_39W31VhbHcpuJw948ZvdB3mPPlSe3khGqbEMhjsH10j4zwf_vvRXOw6hzGNy9Dcg4FFtR031hoCDrnz-nd9iMHf7ayHG0x41GS1m5TQjWciIwLnbUT4w2P60EEhCoWXIXKX0nHjrCBcugioXpGhQ_SvfEyv36oQTo18co4S78wLvuZw", "html_attributions": ["<a href=\"https://maps.google.com/maps/contrib/101616809419052991701/photos\">Tuan Tung Do</a>"], "height": 540}], "place_id": "ChIJ2TdZXcerNTERklfQRcAEv4g", "types": ["cafe", "food", "point_of_interest", "establishment"], "name": "G - House Coffee", "rating": 5, "id": "eb6854178518afc6d497d7fd9d67daaec10e2d38", "reference": "CmRSAAAAOmdoRINyMPy5cMWB2CjaDXsK7X7Wfd4b25G5nOglCC-vPx711Vzo0ZzGJ0phQDXnoq9cQ14AG4sZFukkRSvd7gTYLnqhrzJFT5no7KNu-svCFTa0gFjpVq7BGUgrNZGoEhBc8CfaZotbdYkkYUiMFHUYGhRde9S56zS9so2h7Al3EFeEKFd41w", "vicinity": "409 H\u1ed3ng H\u00e0, Ph\u00fac T\u00e2n", "scope": "GOOGLE"}, {"opening_hours": {"weekday_text": [], "open_now": true}, "geometry": {"viewport": {"northeast": {"lat": 21.0215239302915, "lng": 105.8442069302915}, "southwest": {"lat": 21.0188259697085, "lng": 105.8415089697085}}, "location": {"lat": 21.0202166, "lng": 105.8427824}}, "icon": "https://maps.gstatic.com/mapfiles/place_api/icons/cafe-71.png", "photos": [{"width": 4128, "photo_reference": "CmRaAAAA60G57EbA_fjdcwRXx89laadNEZov1VQAl1jc7FSM88IhPVe3TI2inRhqpAhTnb3MKjs5WAAEI4tpwCpm-2z2YVrxKXnMIPzQvYGHT0RSHEShTrlhZ06_lMPAUJ4U9v-3EhB2KzJ6H6yYuLWm-dcVkM6ZGhQvgy17sEhRNxX4c8MJ3HlMQbR4eQ", "html_attributions": ["<a href=\"https://maps.google.com/maps/contrib/108724084774897667530/photos\">Am I Who</a>"], "height": 2322}], "place_id": "ChIJGSYKJpCrNTERZelsWVA_og0", "types": ["cafe", "food", "point_of_interest", "establishment"], "name": "Ohi Tree & Coffee", "rating": 4.2, "id": "d22f7e6a7949b5a8c97749365b6cc37395dd24c1", "reference": "CmRRAAAAM9AR7touai5HdP7hBNTsG_SPH67SHfA2JnkarFQN9AQ0kufOKsDEeo12TrkWEMOBChRjjSgKD4L5l6-pHOAQig7NdmJDUNfw5VaSRM2TEmq2Qtzx-OlnPCL69ZOuKl3cEhBDyeFXoZHeZbgl4bJKHYnsGhRoUawluIehDB4eOgRKaEpOl2BoNQ", "vicinity": "71 Nguy\u1ec5n Du", "scope": "GOOGLE"}, {"name": "Nice Coconut Coffee", "geometry": {"viewport": {"northeast": {"lat": 21.0343794302915, "lng": 105.8524521302915}, "southwest": {"lat": 21.0316814697085, "lng": 105.8497541697085}}, "location": {"lat": 21.0330349, "lng": 105.8511169}}, "rating": 3.7, "id": "db55a2647faf5783e2f7c1edf227945a5b90e221", "reference": "CmRRAAAAb3jWDalhrxb-u8n4cPWuzmlhlDmkZ6ZggFHEicSYyclJ-KC4lOechoYaJjOdVi8vhiSzTp0YmV8S8GSrmIogPUtmezzWoo28pnKOj1TUFfClYS6ofg9tOL9I6Nm6qdYQEhDPjgQVMuZMAkaV9ck_ActYGhTTouv6RJlSopdWcSw8Gy5OfL_p_A", "icon": "https://maps.gstatic.com/mapfiles/place_api/icons/cafe-71.png", "place_id": "ChIJL52-mL-rNTERO2rUBfkWfUY", "types": ["cafe", "food", "point_of_interest", "establishment"], "scope": "GOOGLE", "vicinity": "42 H\u00e0ng \u0110\u00e0o"}, {"name": "Nh\u0129 Coffee Shop", "geometry": {"viewport": {"northeast": {"lat": 21.0377605802915, "lng": 105.8506132802915}, "southwest": {"lat": 21.0350626197085, "lng": 105.8479153197085}}, "location": {"lat": 21.0364116, "lng": 105.8492643}}, "rating": 3.8, "vicinity": "2, Hang Ca Street, Hang Dao Ward, Hoan Kiem District, Ha Noi City", "id": "dc870a9a5fe48c7f2dc237979d2157309c0f64b9", "reference": "CmRSAAAAEyHCTmwAnRgw3k_Yq7PCY8VQIdcZz5MwKwtY9uldjBb22WANEJPiDZapy8Y6YmCy7mguGyL0nso8hlgt0Q0Djjgav0ieb44LGZOxKm1gxvC_9MQEK2K5flR_tTa0CdCYEhDKxYagW9wcFtV3Q_MyALHIGhSrpBTtMGeEdJ-Um6MpKs35JH0x_A", "photos": [{"width": 2448, "photo_reference": "CmRaAAAAHC09ZyXFOdPITR5q5LfFl_dnqjL8y0yAxk71lb2yjJtwqDgmeyLCGH80X_NHXU_MBxHsT9PSA4Si_-Dinsd02Ib8IXKXojelraUb6r_QtK5kaAGVw8nXz24PGIKl0J2GEhBUhz4uLxV3fHhiipxAWLQnGhRv2txTPsSBusCzk-q3U8VZ-9sMow", "html_attributions": ["<a href=\"https://maps.google.com/maps/contrib/106846826592913741979/photos\">Truong Nguyen Xuan</a>"], "height": 3264}], "icon": "https://maps.gstatic.com/mapfiles/place_api/icons/cafe-71.png", "types": ["cafe", "food", "point_of_interest", "establishment"], "scope": "GOOGLE", "place_id": "ChIJIyCQ1L6rNTER1UH0XXuQ8ZE"}, {"name": "Radio Coffee Shop", "geometry": {"viewport": {"northeast": {"lat": 21.0334245802915, "lng": 105.8524269802915}, "southwest": {"lat": 21.0307266197085, "lng": 105.8497290197085}}, "location": {"lat": 21.0320756, "lng": 105.851078}}, "rating": 4.3, "vicinity": "Level 2 + 3, 11, Hang Gai Street, Hoan Kiem District, Ha Noi City", "id": "0d832ebd775b155d3931c79469cfc29629029a85", "reference": "CmRRAAAAqAvW6nGBhN5zNYuJ0Al0IZ9OSjZD_crvKkZC1SOh34eBtR2NVEYR7Rh6yLliklLrLtLJdzhar3sSzPyp9Q-VENJXkFvtDG8iTkUBeyeHaT79nDtbi9Z8ivpA2XIlptcwEhCUfMQdtLEi8gjoxybVqs5jGhSIXSoQzaGYVoX9U8Kd8KaI-OmiSw", "photos": [{"width": 4032, "photo_reference": "CmRaAAAAQlt-nQhGIc53VP6wKyUltHbQmVzxlA5rQtXmI8vfYixeAAyy2W58TYt9Zqurj7cKsXFqP24G2LFMp1EKSMjDs_7w26sCLQTEDc2Fb8CofMCmywG89CS3N6JcSFEx-TfLEhAy0KDEjv1dj-xF1xcY-tAsGhT-Pdq2ITucKbax7FvBerLrS-8VNg", "html_attributions": ["<a href=\"https://maps.google.com/maps/contrib/103886071781939686197/photos\">Kenta Watanabe</a>"], "height": 3024}], "icon": "https://maps.gstatic.com/mapfiles/place_api/icons/cafe-71.png", "types": ["cafe", "food", "point_of_interest", "establishment"], "scope": "GOOGLE", "place_id": "ChIJC3Falb-rNTERQ9wnAeyQfRQ"}, {"opening_hours": {"weekday_text": [], "open_now": true}, "geometry": {"viewport": {"northeast": {"lat": 21.0342994802915, "lng": 105.8557785302915}, "southwest": {"lat": 21.0316015197085, "lng": 105.8530805697085}}, "location": {"lat": 21.0329487, "lng": 105.8544037}}, "icon": "https://maps.gstatic.com/mapfiles/place_api/icons/cafe-71.png", "photos": [{"width": 960, "photo_reference": "CmRaAAAARgfy6UG0FKFfmBSlEIzoCZZqwLLyBN6vue7lIl1Ic8kGMtUzx-4NLK1V3RZWhhw807QQFAO62k5iDUkG5PkkeW9wtZPengd6XJDgS_8M8n8x2b-k1s7dz8LFxZKnr1k2EhALycIKS2hDiNVuLKLwfqiJGhTLM9Au52DtSk65LePptHaUfpbbdg", "html_attributions": ["<a href=\"https://maps.google.com/maps/contrib/117988671132135706534/photos\">Vi\u1ec7t Ng\u01b0\u1eddi</a>"], "height": 720}], "place_id": "ChIJQbslWcCrNTERNaroQhvlgPY", "types": ["cafe", "food", "point_of_interest", "establishment"], "name": "L\u1ed3ng Coffee", "rating": 4.3, "id": "1b00ac56954b2f3bd2a22bbc496a657856a7fd01", "reference": "CmRSAAAAeZ4zikbU8YGjD1KOMj5GhJHceplGQ450aJBTawEkmGN5MaI30GL4A27M4ZWvn78KV27zgfbUfVPD-bPi8SOcltxZK1RfWSfhk1R7zdQiivV8wjzGw07TR7ZpJTGLyLkQEhBA2OtSZ5IJPnId7H_zVpXsGhRrbI2oRpTN-RHxTIv5Nn_AU58Wvg", "vicinity": "70B Nguy\u1ec5n H\u1eefu Hu\u00e2n, H\u00e0ng B\u1ea1c", "scope": "GOOGLE"}, {"name": "5th may Coffee Shop", "geometry": {"viewport": {"northeast": {"lat": 21.0439973802915, "lng": 105.8459075302915}, "southwest": {"lat": 21.0412994197085, "lng": 105.8432095697085}}, "location": {"lat": 21.0426767, "lng": 105.8445732}}, "rating": 5, "id": "b369dd61cd0909017781cf4eea6518535a0533de", "reference": "CmRSAAAAQ2JbStjxIHcmisw0iJ5CVdHj0JIa4orctf5-Ret7P6iAlxRMKKYNqBoFqc_Uz1yECvhWBLGLRI-gmyCi0mJE17DCVApEM_1ABi2bKb--h5jsN-YDIkxhK1l2C1FLvb43EhCGoX9ete8b61iywkIzEB_zGhSaTiyvYlNWeub2s6V8GYwdff-OEw", "icon": "https://maps.gstatic.com/mapfiles/place_api/icons/cafe-71.png", "place_id": "ChIJjYy5d7qrNTERbZ1w1JfVSIQ", "types": ["cafe", "food", "point_of_interest", "establishment"], "scope": "GOOGLE", "vicinity": "Ba \u0110\u00ecnh Vietnam, 85 Nguy\u1ec5n Tr\u01b0\u1eddng T\u1ed9, H\u00e0 N\u1ed9i"}, {"opening_hours": {"weekday_text": [], "open_now": true}, "geometry": {"viewport": {"northeast": {"lat": 21.0450802302915, "lng": 105.8357065302915}, "southwest": {"lat": 21.04238226970849, "lng": 105.8330085697085}}, "location": {"lat": 21.043734, "lng": 105.8343592}}, "icon": "https://maps.gstatic.com/mapfiles/place_api/icons/cafe-71.png", "photos": [{"width": 2592, "photo_reference": "CmRaAAAATAtxEgiUG3ve2lmOzjwbOKmZQfL4oEt2z-8ouMkxfWQ10cE-ux2U8niHy3_YAEh1s1q8vjjoVUIvgA0Firhh747c045YUb9nrtkUuNav-vQIVBMMb3HvWRMBGWDFRPJHEhD11Z2wP1KwI-l_cWgDJC2NGhS3Ytgjiwu_2H33dIhaVJsu13lJSg", "html_attributions": ["<a href=\"https://maps.google.com/maps/contrib/114253873669584955019/photos\">Hien Nguyen Thu</a>"], "height": 4608}], "place_id": "ChIJBdB9AqarNTERrZ4PgqCkyg4", "types": ["cafe", "food", "point_of_interest", "establishment"], "name": "Brown Bean Coffee", "rating": 3.7, "id": "1cedbbe34e21c1cb866b3933392b063a3f5121e1", "reference": "CmRRAAAAVZA7k_NToquhrx_jPXwXZT_16qv2vzOPfXZrd8VLxkCBihYmdVP6yM5Xr3iB4VPyV_1S6Ix_F-QI7J41BXDvWAZ4Lm7r_jHSA9L5frdtAoXbRAGaKOK2C-2RfaUOsrEbEhCI6b2FfDVD6uQYgQZ1nwaNGhS2qo-Zw2l9_G_0YgU7cxdDhuxSrA", "vicinity": "Ven h\u1ed3 Th\u1ee5y Khu\u00ea, Th\u1ee5y Khu\u00ea", "scope": "GOOGLE"}, {"opening_hours": {"weekday_text": [], "open_now": true}, "geometry": {"viewport": {"northeast": {"lat": 21.0346986302915, "lng": 105.8564220302915}, "southwest": {"lat": 21.0320006697085, "lng": 105.8537240697085}}, "location": {"lat": 21.0333558, "lng": 105.8550853}}, "icon": "https://maps.gstatic.com/mapfiles/place_api/icons/cafe-71.png", "photos": [{"width": 2048, "photo_reference": "CmRaAAAA5aDKM6E9I-hdpIHxoeWb1z0HHDt6DjbSt-ynKgZYdt_2WkiNIjM0BCp6F8X1FR5CU3Qdq7AnOWZuAj7D9vS4ZHwEaYW2DRgk-nYaF1crBU1HPokC1OFq1q9NbARNNWzEEhDBeGm3Wmmj4r1D2sJGb7p5GhRrfmoy7GXIMBaZJhqQI04-YjhMeA", "html_attributions": ["<a href=\"https://maps.google.com/maps/contrib/101927254015128956909/photos\">Dang Hung Nguyen</a>"], "height": 2048}], "place_id": "ChIJM9FV-cCrNTERTHoHrYq91Hw", "types": ["cafe", "food", "point_of_interest", "establishment"], "name": "Lugar de Cita Coffee", "rating": 4.2, "id": "05a18f823d402b0ece27315c559529ee20cd3c54", "reference": "CmRRAAAAk4pfNTe7e1QQxhN9YXp1d6o8Mz5JA8xIOhXGKwEYe42FjJrN9n4iUbUpNuuerV0RjGi3emtqaMEBaOTHbIDWZOhqvBBA1GWtFSNbyLsJPN_cF3PNjw-4_0XHcac9LLl3EhDY8kJZMFKc73g4RqlDo6O3GhRpIPCt7bC_qIFvqq1zXs5xWrsOOw", "vicinity": "11 H\u00e0ng Tre, L\u00fd Th\u00e1i T\u1ed5", "scope": "GOOGLE"}, {"name": "Le Pub Coffee Shop", "geometry": {"viewport": {"northeast": {"lat": 21.0327334802915, "lng": 105.8518846802915}, "southwest": {"lat": 21.0300355197085, "lng": 105.8491867197085}}, "location": {"lat": 21.0313845, "lng": 105.8505357}}, "reference": "CmRSAAAAorpgVlteqW-vazxXabA_JPJQo7wEx-nM0EwMHgLgki7cfH4_sQENX8_ug70O3vij8c9xrex10deUZEgZdb01kVkheNt5c3rewnFRPkI_ixu3U0vfQ7ZTqGH5vLafk87yEhAGFt0YWJ8tzZt4QBrN076eGhSIFvhcaI1PD84jFZoq9Ia-JCdqsg", "id": "18aefa18389951b7b035abfd178b1f7c2c9d6e6a", "icon": "https://maps.gstatic.com/mapfiles/place_api/icons/cafe-71.png", "place_id": "ChIJ1b3RxL-rNTER7vfH0TQutb4", "types": ["cafe", "food", "point_of_interest", "establishment"], "scope": "GOOGLE", "vicinity": "9, Xuan Dieu Street, Tay Ho District, Ha Noi City"}, {"name": "Pho Coffee Shop", "geometry": {"viewport": {"northeast": {"lat": 21.0374701802915, "lng": 105.8538050802915}, "southwest": {"lat": 21.0347722197085, "lng": 105.8511071197085}}, "location": {"lat": 21.0361212, "lng": 105.8524561}}, "rating": 5, "id": "cefd75e7eada8d73dc7695cb9d7e475fc6e456d2", "reference": "CmRSAAAAewx206zb0usvgmi12bXYPrDEybgMbsHVxoa3CmwEzJKY6vZC_tIMubOsU2OtL9xdLjt6S2SNSOcfyN7WYFURnu6iFlXwNlHP-VgCpyMDKxOG_95eRVbXAoD2t5jec0tlEhDgyhJExVB96Uc0HWIxBNKdGhS6mkYeEaFvxtFZElZbUyzHuo-y1g", "icon": "https://maps.gstatic.com/mapfiles/place_api/icons/cafe-71.png", "place_id": "ChIJG_tuVb-rNTERC-ofR2aHzNg", "types": ["cafe", "food", "point_of_interest", "establishment"], "scope": "GOOGLE", "vicinity": "28, Ngoc Lam Street, Long Bien District, Ha Noi City"}]